{"type":"FeatureCollection","features":[{"type":"Feature","properties":{"name":"新北市貢寮區衛生所","id":"2331260016","updateTime":"2022/05/07 22:57:32","stock":78,"label":"羅氏家用新冠病毒抗原自我檢測套組","address":"新北市貢寮區朝陽街７０巷１０號、新北市貢寮區仁愛路１２８號","remark":"快篩試劑販售時間為周一至周五早上9點開始販售，每日販售一箱，數量有限售完為止。","phone":"(02)24901431"},"geometry":{"type":"Point","coordinates":[121.9095,25.02258]}},{"type":"Feature","properties":{"name":"新竹縣五峰鄉衛生所","id":"2333140017","updateTime":"2022/05/07 22:57:32","stock":10,"label":"羅氏家用新冠病毒抗原自我檢測套組","address":"新竹縣五峰鄉大隘村六鄰９９號","remark":"無","phone":"(03)5851005"},"geometry":{"type":"Point","coordinates":[121.1194,24.63184]}},{"type":"Feature","properties":{"name":"苗栗縣南庄鄉衛生所","id":"2335110017","updateTime":"2022/05/07 22:57:32","stock":78,"label":"羅氏家用新冠病毒抗原自我檢測套組","address":"苗栗縣南庄鄉東村大同路１７號","remark":"口罩販賣時段:週一至週五上午8:00~下午5:00","phone":"(037)822024"},"geometry":{"type":"Point","coordinates":[121,24.59733]}},{"type":"Feature","properties":{"name":"嘉義縣大埔鄉衛生所","id":"2340170016","updateTime":"2022/05/07 22:57:32","stock":78,"label":"羅氏家用新冠病毒抗原自我檢測套組","address":"嘉義縣大埔鄉大埔村５３－１號","remark":"無","phone":"(05)2521214"},"geometry":{"type":"Point","coordinates":[120.5928,23.29397]}},{"type":"Feature","properties":{"name":"嘉義縣阿里山鄉衛生所","id":"2340180012","updateTime":"2022/05/07 22:57:32","stock":8,"label":"羅氏家用新冠病毒抗原自我檢測套組","address":"嘉義縣阿里山鄉樂野村３鄰９７－２號","remark":"無","phone":"(05)2561573"},"geometry":{"type":"Point","coordinates":[120.7019,23.4666]}},{"type":"Feature","properties":{"name":"臺南市左鎮區衛生所","id":"2341260019","updateTime":"2022/05/07 22:57:32","stock":18,"label":"羅氏家用新冠病毒抗原自我檢測套組","address":"臺南市左鎮區中正里１７２之１５號","remark":"無","phone":"(06)5731114"},"geometry":{"type":"Point","coordinates":[120.4099,23.05631]}},{"type":"Feature","properties":{"name":"高雄市田寮區衛生所","id":"2342130010","updateTime":"2022/05/07 22:57:32","stock":77,"label":"羅氏家用新冠病毒抗原自我檢測套組","address":"高雄市田寮區南安里崗北路３２號","remark":"巡迴醫療:每星期一、四下午及每月第一個有上班的星期三下午巡迴醫療","phone":"(07)6361504"},"geometry":{"type":"Point","coordinates":[120.3594,22.87301]}},{"type":"Feature","properties":{"name":"高雄市茂林區衛生所","id":"2342250017","updateTime":"2022/05/07 22:57:32","stock":60,"label":"羅氏家用新冠病毒抗原自我檢測套組","address":"高雄市茂林區茂林里茂林巷８－４號","remark":"夜間急診，請先撥電話07-6801046","phone":"(07)6801046"},"geometry":{"type":"Point","coordinates":[120.6641,22.88641]}},{"type":"Feature","properties":{"name":"高雄市桃源區衛生所","id":"2342260013","updateTime":"2022/05/07 22:57:32","stock":152,"label":"羅氏家用新冠病毒抗原自我檢測套組","address":"高雄市桃源區桃源里南進巷１８８－１號","remark":"IDS提供24小時服務","phone":"(07)6861126"},"geometry":{"type":"Point","coordinates":[120.7642,23.15845]}},{"type":"Feature","properties":{"name":"高雄市那瑪夏區衛生所","id":"2342270019","updateTime":"2022/05/07 22:57:32","stock":162,"label":"羅氏家用新冠病毒抗原自我檢測套組","address":"高雄市那瑪夏區瑪雅里６鄰平和巷２５２號","remark":"春節期間正常門診","phone":"(07)6701142"},"geometry":{"type":"Point","coordinates":[120.7024,23.24708]}},{"type":"Feature","properties":{"name":"澎湖縣馬公市第三衛生所","id":"2344011036","updateTime":"2022/05/07 22:57:32","stock":73,"label":"羅氏家用新冠病毒抗原自我檢測套組","address":"澎湖縣馬公市西文里１１８之２號","remark":"本所快篩試劑只提供離島衛生室（虎井、桶盤）販售，時間週一至週五08:30-17:00售完為止，星期六、日國定假日09:00-12:00。","phone":"(06)9211723"},"geometry":{"type":"Point","coordinates":[119.5836,23.56813]}},{"type":"Feature","properties":{"name":"澎湖縣白沙鄉鳥嶼衛生所","id":"2344030022","updateTime":"2022/05/07 22:57:32","stock":62,"label":"羅氏家用新冠病毒抗原自我檢測套組","address":"澎湖縣白沙鄉鳥嶼村漁港新村３號","remark":"非上班時間提供急診服務","phone":"(06)9916092"},"geometry":{"type":"Point","coordinates":[119.6599,23.66008]}},{"type":"Feature","properties":{"name":"澎湖縣白沙鄉吉貝衛生所","id":"2344030031","updateTime":"2022/05/07 22:57:32","stock":141,"label":"羅氏家用新冠病毒抗原自我檢測套組","address":"澎湖縣白沙鄉吉貝村８－１３號","remark":"無","phone":"(06)9911430"},"geometry":{"type":"Point","coordinates":[119.6138,23.74056]}},{"type":"Feature","properties":{"name":"澎湖縣望安鄉衛生所","id":"2344050015","updateTime":"2022/05/07 22:57:32","stock":111,"label":"羅氏家用新冠病毒抗原自我檢測套組","address":"澎湖縣望安鄉西安村３６－７號","remark":"夜間急診。口罩、快篩試劑販售時間為:每日08:00-12:00、13:30-17:30售完為止，如有餘數為離島未售出（東嶼坪、花嶼）。","phone":"(06)9991036"},"geometry":{"type":"Point","coordinates":[119.4972,23.36161]}},{"type":"Feature","properties":{"name":"澎湖縣望安鄉將軍衛生所","id":"2344050024","updateTime":"2022/05/07 22:57:32","stock":178,"label":"羅氏家用新冠病毒抗原自我檢測套組","address":"澎湖縣望安鄉將軍村１２鄰將軍澳１之３號","remark":"24小時急診","phone":"(06)9902066"},"geometry":{"type":"Point","coordinates":[119.5216,23.3615]}},{"type":"Feature","properties":{"name":"澎湖縣七美鄉衛生所","id":"2344060011","updateTime":"2022/05/07 22:57:32","stock":40,"label":"羅氏家用新冠病毒抗原自我檢測套組","address":"澎湖縣七美鄉中和村埔內５４號","remark":"無","phone":"(06)9971005"},"geometry":{"type":"Point","coordinates":[119.431,23.2041]}},{"type":"Feature","properties":{"name":"衛生福利部花蓮醫院豐濱原住民分院","id":"2345080017","updateTime":"2022/05/07 22:57:32","stock":78,"label":"羅氏家用新冠病毒抗原自我檢測套組","address":"花蓮縣豐濱鄉豐濱村光豐路４１號","remark":"*本院口罩每天販售，時間自上午8點至晚上9點  *本院週一至週五上下午皆有門診，星期六隔週提供門診，及24小時急診。","phone":"(03)8358141"},"geometry":{"type":"Point","coordinates":[121.5215,23.60195]}},{"type":"Feature","properties":{"name":"花蓮縣富里鄉衛生所","id":"2345100014","updateTime":"2022/05/07 22:57:32","stock":156,"label":"羅氏家用新冠病毒抗原自我檢測套組","address":"花蓮縣富里鄉富里村中山路２０３號","remark":"*內科:每週二下午東里玉蓮寺巡診 **牙科:每週二至卓溪醫療站***口罩販賣時間8:30起至11:00止","phone":"(03)8831029"},"geometry":{"type":"Point","coordinates":[121.2491,23.17847]}},{"type":"Feature","properties":{"name":"花蓮縣秀林鄉衛生所","id":"2345110010","updateTime":"2022/05/07 22:57:32","stock":78,"label":"羅氏家用新冠病毒抗原自我檢測套組","address":"花蓮縣秀林鄉秀林村１２鄰秀林路８８號","remark":"口罩代售時間上班日上午8:10至12時止（口罩限量故售完為止）","phone":"(03)8612122"},"geometry":{"type":"Point","coordinates":[121.6334,24.1269]}},{"type":"Feature","properties":{"name":"花蓮縣萬榮鄉衛生所","id":"2345120016","updateTime":"2022/05/07 22:57:32","stock":104,"label":"羅氏家用新冠病毒抗原自我檢測套組","address":"花蓮縣萬榮鄉萬榮村１鄰１６號","remark":"快篩試劑代售時間：週一至週五下午2點至下午4點，販售為止。","phone":"(03)8751651"},"geometry":{"type":"Point","coordinates":[121.4092,23.71558]}},{"type":"Feature","properties":{"name":"花蓮縣卓溪鄉衛生所","id":"2345130012","updateTime":"2022/05/07 22:57:32","stock":156,"label":"羅氏家用新冠病毒抗原自我檢測套組","address":"花蓮縣卓溪鄉卓溪村中正路６５號","remark":"快篩試劑代售時間：週一至週五上午8：30-11：00（售完即結束）","phone":"(03)8882592"},"geometry":{"type":"Point","coordinates":[121.3033,23.33294]}},{"type":"Feature","properties":{"name":"台東縣金峰鄉衛生所","id":"2346150018","updateTime":"2022/05/07 22:57:32","stock":78,"label":"羅氏家用新冠病毒抗原自我檢測套組","address":"臺東縣金峰鄉賓茂村１鄰１４號","remark":"快篩試劑販售時間為星期一至星期五，早上8:30~12:00；下午1:30~5:00","phone":"(089)772201"},"geometry":{"type":"Point","coordinates":[120.9606,22.53248]}},{"type":"Feature","properties":{"name":"台東縣蘭嶼鄉衛生所","id":"2346160014","updateTime":"2022/05/07 22:57:32","stock":78,"label":"羅氏家用新冠病毒抗原自我檢測套組","address":"臺東縣蘭嶼鄉紅頭村３６號","remark":"販售口罩時間 星期一至星期五 8:00~12:00 13:30~17:30","phone":"(089)732575"},"geometry":{"type":"Point","coordinates":[121.5546,22.02493]}},{"type":"Feature","properties":{"name":"金門縣烈嶼鄉衛生所","id":"2390050032","updateTime":"2022/05/07 22:57:32","stock":12,"label":"羅氏家用新冠病毒抗原自我檢測套組","address":"金門縣烈嶼鄉西口村西方６－５號","remark":"快篩試劑販售時間:周一至周五下午1點至3點","phone":"(082)362078"},"geometry":{"type":"Point","coordinates":[118.2395,24.43519]}},{"type":"Feature","properties":{"name":"連江縣北竿鄉衛生所","id":"2391020010","updateTime":"2022/05/07 22:57:32","stock":11,"label":"羅氏家用新冠病毒抗原自我檢測套組","address":"連江縣北竿鄉塘岐村２８１－６號","remark":"新冠快篩試劑販售於週一至周六每日上午08:30-12:00開放購買。","phone":"(083)655592"},"geometry":{"type":"Point","coordinates":[119.9991,26.22617]}},{"type":"Feature","properties":{"name":"連江縣莒光鄉西莒衛生所","id":"2391030016","updateTime":"2022/05/07 22:57:32","stock":306,"label":"羅氏家用新冠病毒抗原自我檢測套組","address":"連江縣莒光鄉青帆村１４－１號","remark":"防疫口罩星期一至五09:00-17:00、（六）09:00-12:00現場購買","phone":"(083)689122"},"geometry":{"type":"Point","coordinates":[119.9331,25.97157]}},{"type":"Feature","properties":{"name":"連江縣莒光鄉東莒衛生所","id":"2391030026","updateTime":"2022/05/07 22:57:32","stock":434,"label":"羅氏家用新冠病毒抗原自我檢測套組","address":"連江縣莒光鄉大坪村３０－１號","remark":"防疫口罩星期一至星期日上午10:00-12:00收取健保卡，下午3:30至本所領取口罩。","phone":"(083)689038"},"geometry":{"type":"Point","coordinates":[119.9731,25.96113]}},{"type":"Feature","properties":{"name":"康采藥局","id":"5901013095","updateTime":"2022/05/07 22:57:32","stock":16,"label":"羅氏家用新冠病毒抗原自我檢測套組","address":"臺北市松山區南京東路５段２９１巷１７－２號","remark":"（已完售，庫存不準）快篩試劑每日16點販售，週日沒有販售","phone":"(02)27670271"},"geometry":{"type":"Point","coordinates":[121.5663,25.05236]}},{"type":"Feature","properties":{"name":"百岳藥局","id":"5901024669","updateTime":"2022/05/07 22:57:32","stock":78,"label":"羅氏家用新冠病毒抗原自我檢測套組","address":"臺北市大安區和平東路２段３１１巷１１號","remark":"快篩試劑販售時間:周一至周五10:30~12:00止","phone":"(02)27551037"},"geometry":{"type":"Point","coordinates":[121.5452,25.02514]}},{"type":"Feature","properties":{"name":"啟美藥師藥局","id":"5901102444","updateTime":"2022/05/07 22:57:32","stock":78,"label":"羅氏家用新冠病毒抗原自我檢測套組","address":"臺北市中山區錦州街２８２號","remark":"快篩 販售時間 20點開賣到21點，星期六日公休","phone":"(02)25178032"},"geometry":{"type":"Point","coordinates":[121.5352,25.06024]}},{"type":"Feature","properties":{"name":"桔子藥局","id":"5901113018","updateTime":"2022/05/07 22:57:32","stock":78,"label":"羅氏家用新冠病毒抗原自我檢測套組","address":"臺北市內湖區內湖路２段３３３號","remark":"早0900-1200，午1400-1700，晚1900-2100","phone":"(02)27930052"},"geometry":{"type":"Point","coordinates":[121.5917,25.08319]}},{"type":"Feature","properties":{"name":"安寧藥局","id":"5901150593","updateTime":"2022/05/07 22:57:32","stock":78,"label":"羅氏家用新冠病毒抗原自我檢測套組","address":"臺北市士林區劍潭路９１號","remark":"領藥星期1.3.5為 9:00~12:00.及16:00~20:00*星期2.4.6.--上午","phone":"(02)28803319"},"geometry":{"type":"Point","coordinates":[121.5199,25.08285]}},{"type":"Feature","properties":{"name":"藥本家藥局","id":"5901154108","updateTime":"2022/05/07 22:57:32","stock":12,"label":"羅氏家用新冠病毒抗原自我檢測套組","address":"臺北市士林區中山北路７段１４巷２６號１樓","remark":"無","phone":"(02)28766682"},"geometry":{"type":"Point","coordinates":[121.5328,25.11884]}},{"type":"Feature","properties":{"name":"良哲藥局","id":"5901163554","updateTime":"2022/05/07 22:57:32","stock":2,"label":"羅氏家用新冠病毒抗原自我檢測套組","address":"臺北市北投區明德路１５７－４號（實際使用：１樓）","remark":"實名制快篩販售時間：早上 9:00~9:30／下午 2:30~3:00（週六人力不足不販售／週日休息）","phone":"(02)28285516"},"geometry":{"type":"Point","coordinates":[121.5209,25.11129]}},{"type":"Feature","properties":{"name":"杏隆藥局","id":"5901202627","updateTime":"2022/05/07 22:57:32","stock":156,"label":"羅氏家用新冠病毒抗原自我檢測套組","address":"臺北市文山區羅斯福路５段２６１號","remark":"快篩實名制採預約登記，至5／14已登記額滿。","phone":"(02)29313151"},"geometry":{"type":"Point","coordinates":[121.5395,25.00115]}},{"type":"Feature","properties":{"name":"健康家藥局","id":"5901203482","updateTime":"2022/05/07 22:57:32","stock":1,"label":"羅氏家用新冠病毒抗原自我檢測套組","address":"臺北市文山區興隆路２段１３３號１樓","remark":"實名制快篩下午一點開始販售，5／1店休","phone":"(02)29330858"},"geometry":{"type":"Point","coordinates":[121.5481,25.00011]}},{"type":"Feature","properties":{"name":"北勢進騰藥局","id":"5903050103","updateTime":"2022/05/07 22:57:32","stock":78,"label":"羅氏家用新冠病毒抗原自我檢測套組","address":"臺中市沙鹿區北勢東路５０９之７號１樓","remark":"營業時間12:00-22:00，每日12:00販售實名制快篩","phone":"(04)26330893"},"geometry":{"type":"Point","coordinates":[120.576,24.22526]}},{"type":"Feature","properties":{"name":"佳福藥局","id":"5903090143","updateTime":"2022/05/07 22:57:32","stock":78,"label":"羅氏家用新冠病毒抗原自我檢測套組","address":"臺中市潭子區中山路１段４３－１號","remark":"每日中午12:00至下午3:00休息，星期六公休，營業日上午8:00快篩試劑開賣","phone":"(04)25332982"},"geometry":{"type":"Point","coordinates":[120.7023,24.19138]}},{"type":"Feature","properties":{"name":"美十樂中科藥局","id":"5903271031","updateTime":"2022/05/07 22:57:32","stock":468,"label":"羅氏家用新冠病毒抗原自我檢測套組","address":"臺中市西屯區西屯路三段１６６－６５號１樓","remark":"醫事人員卡片損壞，暫時無法販賣快篩","phone":"(04)24610219"},"geometry":{"type":"Point","coordinates":[120.6129,24.19035]}},{"type":"Feature","properties":{"name":"安安藥局隆田店","id":"5905140039","updateTime":"2022/05/07 22:57:32","stock":2,"label":"羅氏家用新冠病毒抗原自我檢測套組","address":"臺南市官田區中山路一段１５號１樓","remark":"全日口罩販賣","phone":"(06)5795705"},"geometry":{"type":"Point","coordinates":[120.3186,23.1927]}},{"type":"Feature","properties":{"name":"佑全中華藥局","id":"5905320466","updateTime":"2022/05/07 22:57:32","stock":1,"label":"羅氏家用新冠病毒抗原自我檢測套組","address":"臺南市東區中華東路三段２１５號","remark":"星期一-六08:00-21:00","phone":"(06)2906386"},"geometry":{"type":"Point","coordinates":[120.2253,22.97603]}},{"type":"Feature","properties":{"name":"人人好藥局","id":"5907010187","updateTime":"2022/05/07 22:57:32","stock":77,"label":"羅氏家用新冠病毒抗原自我檢測套組","address":"高雄市鳳山區五甲三路１０巷７號１樓","remark":"上午0830-1330下午1530-2100， 自2／11-2／29口罩販售周一三四五日，時間:9:00-12:00售完為止","phone":"(07)8151566"},"geometry":{"type":"Point","coordinates":[120.3278,22.59336]}},{"type":"Feature","properties":{"name":"保生藥局","id":"5907160093","updateTime":"2022/05/07 22:57:32","stock":1,"label":"羅氏家用新冠病毒抗原自我檢測套組","address":"高雄市湖內區葉厝里保生路３４０．３４２號","remark":"快篩實名制，每天16:00開始販售，售完為止。","phone":"(07)6990800"},"geometry":{"type":"Point","coordinates":[120.2195,22.90733]}},{"type":"Feature","properties":{"name":"海大藥局","id":"5911011334","updateTime":"2022/05/07 22:57:32","stock":78,"label":"羅氏家用新冠病毒抗原自我檢測套組","address":"基隆市中正區新豐街２５５號１樓","remark":"平日：8：30~12：00，15：00~21：30；星期日：~12：00","phone":"(02)24699222"},"geometry":{"type":"Point","coordinates":[121.7879,25.13621]}},{"type":"Feature","properties":{"name":"正三吉藥局","id":"5917011945","updateTime":"2022/05/07 22:57:32","stock":78,"label":"羅氏家用新冠病毒抗原自我檢測套組","address":"臺中市中區臺灣大道一段９５號","remark":"快篩販售時間 14:00~17:00","phone":"(04)22207700"},"geometry":{"type":"Point","coordinates":[120.6831,24.13911]}},{"type":"Feature","properties":{"name":"康活藥局","id":"5921071226","updateTime":"2022/05/07 22:57:32","stock":4,"label":"羅氏家用新冠病毒抗原自我檢測套組","address":"臺南市安平區健康三街１８６號","remark":"快篩晚上18:00開賣.","phone":"(06)2936483"},"geometry":{"type":"Point","coordinates":[120.1686,22.98883]}},{"type":"Feature","properties":{"name":"正康健保藥局","id":"5931015687","updateTime":"2022/05/07 22:57:32","stock":78,"label":"羅氏家用新冠病毒抗原自我檢測套組","address":"新北市板橋區大觀路２段６５號１樓","remark":"下午13:30依現場順序開始販售快篩，快篩配送絮亂庫存不準!!","phone":"(02)22756681"},"geometry":{"type":"Point","coordinates":[121.4467,25.00246]}},{"type":"Feature","properties":{"name":"正安健保藥局","id":"5931016808","updateTime":"2022/05/07 22:57:32","stock":78,"label":"羅氏家用新冠病毒抗原自我檢測套組","address":"新北市板橋區民族路２２４號（１樓）","remark":"17時依現場順序開始販售.週六12點.電腦配送庫存不準..以現場數量為準","phone":"(02)29526813"},"geometry":{"type":"Point","coordinates":[121.4687,25.00733]}},{"type":"Feature","properties":{"name":"後埔藥局","id":"5931017994","updateTime":"2022/05/07 22:57:32","stock":1,"label":"羅氏家用新冠病毒抗原自我檢測套組","address":"新北市板橋區華興街９號（１樓）","remark":"5／7 下午2點發放號碼牌*確保作業流暢請自備500元*每天 78 份晚上10 點以前領取完畢（過卡時間差異剩餘數量僅供參考）","phone":"(02)89510306"},"geometry":{"type":"Point","coordinates":[121.459,25.00457]}},{"type":"Feature","properties":{"name":"甜心健康生活藥局","id":"5931024426","updateTime":"2022/05/07 22:57:32","stock":49,"label":"羅氏家用新冠病毒抗原自我檢測套組","address":"新北市三重區福祉里集美街４５號１樓","remark":"無","phone":"(02)29762223"},"geometry":{"type":"Point","coordinates":[121.488,25.05542]}},{"type":"Feature","properties":{"name":"昌誠藥局","id":"5931025398","updateTime":"2022/05/07 22:57:32","stock":5,"label":"羅氏家用新冠病毒抗原自我檢測套組","address":"新北市三重區三和路４段１６１號１樓","remark":"5／2 （休診）","phone":"(02)22876338"},"geometry":{"type":"Point","coordinates":[121.4835,25.0785]}},{"type":"Feature","properties":{"name":"幸康藥局","id":"5931025647","updateTime":"2022/05/07 22:57:32","stock":17,"label":"羅氏家用新冠病毒抗原自我檢測套組","address":"新北市三重區正義北路２０５號２樓","remark":"國定假日，如元旦，端午，中秋不執行調劑業務。政府快篩實名制於週一~週六的14:30開始販售。","phone":"(02)29816105"},"geometry":{"type":"Point","coordinates":[121.4962,25.0684]}},{"type":"Feature","properties":{"name":"皇家藥師藥局","id":"5931033103","updateTime":"2022/05/07 22:57:32","stock":78,"label":"羅氏家用新冠病毒抗原自我檢測套組","address":"新北市永和區中正路７２０號１樓","remark":"無","phone":"(02)89216867"},"geometry":{"type":"Point","coordinates":[121.5158,25.01017]}},{"type":"Feature","properties":{"name":"台化藥局","id":"5931033774","updateTime":"2022/05/07 22:57:32","stock":1,"label":"羅氏家用新冠病毒抗原自我檢測套組","address":"新北市永和區勵行街１１９號１樓","remark":"無","phone":"(02)22318585"},"geometry":{"type":"Point","coordinates":[121.5175,25.01202]}},{"type":"Feature","properties":{"name":"雙合藥局","id":"5931043636","updateTime":"2022/05/07 22:57:32","stock":2,"label":"羅氏家用新冠病毒抗原自我檢測套組","address":"新北市中和區中正路２９１號１樓","remark":"無","phone":"(02)22476607"},"geometry":{"type":"Point","coordinates":[121.4941,24.99375]}},{"type":"Feature","properties":{"name":"良安藥局","id":"5931043921","updateTime":"2022/05/07 22:57:32","stock":8,"label":"羅氏家用新冠病毒抗原自我檢測套組","address":"新北市中和區連城路４７７巷１號１樓","remark":"週六日不開店，實名制快篩，晚上9:00開始販售","phone":"(02)22225798"},"geometry":{"type":"Point","coordinates":[121.4833,24.99555]}},{"type":"Feature","properties":{"name":"十安藥局","id":"5931060342","updateTime":"2022/05/07 22:57:32","stock":2,"label":"羅氏家用新冠病毒抗原自我檢測套組","address":"新北市新莊區中港路３１６號","remark":"自111／04／01起不再販賣實名制口罩","phone":"(02)29922859"},"geometry":{"type":"Point","coordinates":[121.4524,25.04544]}},{"type":"Feature","properties":{"name":"建嘉藥局","id":"5931067403","updateTime":"2022/05/07 22:57:32","stock":78,"label":"羅氏家用新冠病毒抗原自我檢測套組","address":"新北市新莊區中誠街４２號１樓","remark":"無","phone":"(02)29925261"},"geometry":{"type":"Point","coordinates":[121.4513,25.04812]}},{"type":"Feature","properties":{"name":"中信藥師藥局","id":"5931069603","updateTime":"2022/05/07 22:57:32","stock":78,"label":"羅氏家用新冠病毒抗原自我檢測套組","address":"新北市新莊區中信街８０號１樓","remark":"AM 07:30 開始","phone":"(02)29969811"},"geometry":{"type":"Point","coordinates":[121.448,25.05311]}},{"type":"Feature","properties":{"name":"家嘉藥局","id":"593106B036","updateTime":"2022/05/07 22:57:32","stock":1,"label":"羅氏家用新冠病毒抗原自我檢測套組","address":"新北市新莊區自立街１０３號（１樓）","remark":"今天號碼牌都已發放完畢","phone":"(02)89926488"},"geometry":{"type":"Point","coordinates":[121.4553,25.04549]}},{"type":"Feature","properties":{"name":"琉璃水藥師藥局","id":"5931072066","updateTime":"2022/05/07 22:57:32","stock":78,"label":"羅氏家用新冠病毒抗原自我檢測套組","address":"新北市樹林區龍興街２１號１樓","remark":"無","phone":"(02)26764262"},"geometry":{"type":"Point","coordinates":[121.403,25.01614]}},{"type":"Feature","properties":{"name":"信義健保藥局","id":"5931081547","updateTime":"2022/05/07 22:57:32","stock":39,"label":"羅氏家用新冠病毒抗原自我檢測套組","address":"新北市鶯歌區信義街６３號１樓","remark":"發放時間以現場公告為主","phone":"(02)86775563"},"geometry":{"type":"Point","coordinates":[121.3534,24.95571]}},{"type":"Feature","properties":{"name":"金美藥局","id":"5931092200","updateTime":"2022/05/07 22:57:32","stock":22,"label":"羅氏家用新冠病毒抗原自我檢測套組","address":"新北市三峽區大同路２３８號１樓","remark":"無","phone":"(02)86715859"},"geometry":{"type":"Point","coordinates":[121.3663,24.92573]}},{"type":"Feature","properties":{"name":"本平藥局","id":"5931120049","updateTime":"2022/05/07 22:57:32","stock":2,"label":"羅氏家用新冠病毒抗原自我檢測套組","address":"新北市瑞芳區瑞芳街４５號","remark":"無","phone":"(02)24972167"},"geometry":{"type":"Point","coordinates":[121.8076,25.10913]}},{"type":"Feature","properties":{"name":"祥安大藥局","id":"5931131579","updateTime":"2022/05/07 22:57:32","stock":78,"label":"羅氏家用新冠病毒抗原自我檢測套組","address":"新北市土城區立德路４２－１號","remark":"無","phone":"(02)22629707"},"geometry":{"type":"Point","coordinates":[121.4636,24.98727]}},{"type":"Feature","properties":{"name":"誠安藥局","id":"5931132343","updateTime":"2022/05/07 22:57:32","stock":156,"label":"羅氏家用新冠病毒抗原自我檢測套組","address":"新北市土城區中央路４段３６號１樓","remark":"快篩代售時段：平日晚上8點，售完為止","phone":"(02)22677737"},"geometry":{"type":"Point","coordinates":[121.4207,24.96088]}},{"type":"Feature","properties":{"name":"健業藥局","id":"5931132807","updateTime":"2022/05/07 22:57:32","stock":78,"label":"羅氏家用新冠病毒抗原自我檢測套組","address":"新北市土城區中央路２段２２３－１０號","remark":"無","phone":"(02)22704798"},"geometry":{"type":"Point","coordinates":[121.4407,24.97312]}},{"type":"Feature","properties":{"name":"城安大藥局","id":"5931133331","updateTime":"2022/05/07 22:57:32","stock":16,"label":"羅氏家用新冠病毒抗原自我檢測套組","address":"新北市土城區金城路３段４０號","remark":"快篩代售時間晚上8:30","phone":"(02)22646561"},"geometry":{"type":"Point","coordinates":[121.4656,24.98639]}},{"type":"Feature","properties":{"name":"萊康連鎖藥局","id":"5931142509","updateTime":"2022/05/07 22:57:32","stock":78,"label":"羅氏家用新冠病毒抗原自我檢測套組","address":"新北市蘆洲區中正路１２６號１樓","remark":"下午三點開賣!!如有異動!!以現場公告為主!!","phone":"(02)82867383"},"geometry":{"type":"Point","coordinates":[121.4694,25.08493]}},{"type":"Feature","properties":{"name":"小蘋果藥局","id":"5931231225","updateTime":"2022/05/07 22:57:32","stock":74,"label":"羅氏家用新冠病毒抗原自我檢測套組","address":"新北市八里區中山路１段２２９號","remark":"無","phone":"(02)26108206"},"geometry":{"type":"Point","coordinates":[121.411,25.1576]}},{"type":"Feature","properties":{"name":"永祥大藥局","id":"5932011870","updateTime":"2022/05/07 22:57:32","stock":3,"label":"羅氏家用新冠病毒抗原自我檢測套組","address":"桃園市桃園區永安路５２８號","remark":"口罩販賣時段：週一至週六早上9點","phone":"(03)3337161"},"geometry":{"type":"Point","coordinates":[121.2986,25.00181]}},{"type":"Feature","properties":{"name":"小飛象藥局","id":"5932014102","updateTime":"2022/05/07 22:57:32","stock":78,"label":"羅氏家用新冠病毒抗原自我檢測套組","address":"桃園市桃園區慈文路１９２號","remark":"5／8[ 09:30 ]開賣78份，再打來問一律掛電話。不發放號碼牌，請自行計算人數。即起調劑確診者之視訊處方，請自保。","phone":"(03)3552771"},"geometry":{"type":"Point","coordinates":[121.3041,25.00907]}},{"type":"Feature","properties":{"name":"思琁藥師藥局","id":"5932023656","updateTime":"2022/05/07 22:57:32","stock":1,"label":"羅氏家用新冠病毒抗原自我檢測套組","address":"桃園市中壢區中北路二段４３０號","remark":"週一~週五早上10:30發快篩..週六公休..週日看到貨狀況再另行公告","phone":"(03)4162189"},"geometry":{"type":"Point","coordinates":[121.2331,24.95448]}},{"type":"Feature","properties":{"name":"華勛藥局","id":"5932023889","updateTime":"2022/05/07 22:57:32","stock":1,"label":"羅氏家用新冠病毒抗原自我檢測套組","address":"桃園市中壢區華勛街１１２、１１４號","remark":"快篩實名制，每天16:00開始販售，售完為止。","phone":"(03)4161881"},"geometry":{"type":"Point","coordinates":[121.2597,24.95065]}},{"type":"Feature","properties":{"name":"元森藥局","id":"5932043390","updateTime":"2022/05/07 22:57:32","stock":1,"label":"羅氏家用新冠病毒抗原自我檢測套組","address":"桃園市楊梅區瑞溪路２段１２５號１樓","remark":"無","phone":"(03)4311058"},"geometry":{"type":"Point","coordinates":[121.1806,24.90875]}},{"type":"Feature","properties":{"name":"康而美聖安藥師藥局","id":"5932051472","updateTime":"2022/05/07 22:57:32","stock":3,"label":"羅氏家用新冠病毒抗原自我檢測套組","address":"桃園市蘆竹區南山路一段二之一號","remark":"暫停止販售","phone":"(03)3228753"},"geometry":{"type":"Point","coordinates":[121.2916,25.04879]}},{"type":"Feature","properties":{"name":"南崁藥局","id":"5932052979","updateTime":"2022/05/07 22:57:32","stock":157,"label":"羅氏家用新冠病毒抗原自我檢測套組","address":"桃園市蘆竹區中正路２５１、２５３、２５５號","remark":"快篩實名制，每天16:00開始販售，售完為止。","phone":"(03)3522022"},"geometry":{"type":"Point","coordinates":[121.2921,25.04695]}},{"type":"Feature","properties":{"name":"明昌藥局","id":"5932077270","updateTime":"2022/05/07 22:57:32","stock":1,"label":"羅氏家用新冠病毒抗原自我檢測套組","address":"桃園市龜山區中興里萬壽路二段１１９１－６號","remark":"無","phone":"(03)3501205"},"geometry":{"type":"Point","coordinates":[121.3318,24.99291]}},{"type":"Feature","properties":{"name":"吉康生活藥局","id":"5932083303","updateTime":"2022/05/07 22:57:32","stock":78,"label":"羅氏家用新冠病毒抗原自我檢測套組","address":"桃園市八德區義勇街１２０號","remark":"周休二日，周一到周五09.:30發放快篩號碼牌 銷售時間 09:30-11:30","phone":"(03)3768577"},"geometry":{"type":"Point","coordinates":[121.3045,24.96354]}},{"type":"Feature","properties":{"name":"晨鴻藥師藥局","id":"5932083974","updateTime":"2022/05/07 22:57:32","stock":14,"label":"羅氏家用新冠病毒抗原自我檢測套組","address":"桃園市八德區桃鶯路７號１樓","remark":"快篩為早上8:30跟晚上6:00領取號碼牌，星期六早上一次發78份，快篩地圖數量參考就好，請勿再打電話詢問 謝謝","phone":"(03)3764299"},"geometry":{"type":"Point","coordinates":[121.3265,24.97179]}},{"type":"Feature","properties":{"name":"康馥藥局","id":"5932084695","updateTime":"2022/05/07 22:57:32","stock":78,"label":"羅氏家用新冠病毒抗原自我檢測套組","address":"桃園市八德區金和路５３號１樓","remark":"口罩販賣時段：15:00 ， 週日14:30開始營業；星期六公休。","phone":"(03)3749620"},"geometry":{"type":"Point","coordinates":[121.2971,24.95494]}},{"type":"Feature","properties":{"name":"康健複合式連鎖藥局","id":"593210A078","updateTime":"2022/05/07 22:57:32","stock":1,"label":"羅氏家用新冠病毒抗原自我檢測套組","address":"桃園市平鎮區金陵路三段９１號","remark":"實名制快篩試劑13:00開始，不發號碼牌，現場排隊售完為止，一人一卡，自備500元，恕不找零，不收銅板，謝謝配合","phone":"(03)4684601"},"geometry":{"type":"Point","coordinates":[121.2276,24.92882]}},{"type":"Feature","properties":{"name":"明德藥局","id":"5933010064","updateTime":"2022/05/07 22:57:32","stock":39,"label":"羅氏家用新冠病毒抗原自我檢測套組","address":"新竹縣關西鎮中山路１８號","remark":"無","phone":"(03)5874335"},"geometry":{"type":"Point","coordinates":[121.1778,24.79152]}},{"type":"Feature","properties":{"name":"安東藥師藥局","id":"5933011258","updateTime":"2022/05/07 22:57:32","stock":78,"label":"羅氏家用新冠病毒抗原自我檢測套組","address":"新竹縣關西鎮中山路６２號","remark":"口罩販賣時段：星期一至六08:00-21:00、星期日08:00-17:00","phone":"(03)5872385"},"geometry":{"type":"Point","coordinates":[121.1766,24.79147]}},{"type":"Feature","properties":{"name":"合康藥局","id":"5933031652","updateTime":"2022/05/07 22:57:32","stock":13,"label":"羅氏家用新冠病毒抗原自我檢測套組","address":"新竹縣竹東鎮興農街１１號","remark":"實名制快篩時段：下午17:00~22:30","phone":"(03)5103818"},"geometry":{"type":"Point","coordinates":[121.0861,24.73988]}},{"type":"Feature","properties":{"name":"宜生藥局","id":"5934011529","updateTime":"2022/05/07 22:57:32","stock":22,"label":"羅氏家用新冠病毒抗原自我檢測套組","address":"宜蘭縣宜蘭市新民路１１１號","remark":"周一至周六 上午8點至上午 9點 （或售完為止）5月7日台電停電 休息一日","phone":"(03)9327893"},"geometry":{"type":"Point","coordinates":[121.7551,24.75716]}},{"type":"Feature","properties":{"name":"立安藥局","id":"5935030171","updateTime":"2022/05/07 22:57:32","stock":1,"label":"羅氏家用新冠病毒抗原自我檢測套組","address":"苗栗縣通霄鎮信義路１０７號","remark":"快篩實名制 週一到週六下午15:00開始販售  售完為止","phone":"(037)760100"},"geometry":{"type":"Point","coordinates":[120.6804,24.48877]}},{"type":"Feature","properties":{"name":"康禾藥局","id":"5937013347","updateTime":"2022/05/07 22:57:32","stock":8,"label":"羅氏家用新冠病毒抗原自我檢測套組","address":"彰化縣彰化市崙平里建和街５２號","remark":"固定周一至周五下午一點發放快篩試劑，售完為止","phone":"(04)7624077"},"geometry":{"type":"Point","coordinates":[120.5322,24.07063]}},{"type":"Feature","properties":{"name":"彰化藥局","id":"5937013570","updateTime":"2022/05/07 22:57:32","stock":78,"label":"羅氏家用新冠病毒抗原自我檢測套組","address":"彰化縣彰化市永安街２７８、２８０號","remark":"快篩實名制，每天16:00開始販售，售完為止。","phone":"(04)7287877"},"geometry":{"type":"Point","coordinates":[120.5438,24.08977]}},{"type":"Feature","properties":{"name":"順安藥局","id":"5937021330","updateTime":"2022/05/07 22:57:32","stock":78,"label":"羅氏家用新冠病毒抗原自我檢測套組","address":"彰化縣鹿港鎮泰興里復興路１２５號","remark":"販售快篩篩劑時間: 週1.2.4.5.日 早上8:00  ／  週3下午2:00   ／ 週六停止販售  5／4已經完售","phone":"(04)7765510"},"geometry":{"type":"Point","coordinates":[120.4386,24.05279]}},{"type":"Feature","properties":{"name":"明安大藥局","id":"5938011730","updateTime":"2022/05/07 22:57:32","stock":71,"label":"羅氏家用新冠病毒抗原自我檢測套組","address":"南投縣南投市復興路４８７、４８９號","remark":"早上9:30開始領快篩號碼牌，14:00後領健保卡","phone":"(049)2248922"},"geometry":{"type":"Point","coordinates":[120.6769,23.91728]}},{"type":"Feature","properties":{"name":"和平藥局","id":"5939171093","updateTime":"2022/05/07 22:57:32","stock":15,"label":"羅氏家用新冠病毒抗原自我檢測套組","address":"雲林縣元長鄉下寮村東興路３３號","remark":"販賣口罩時間：0800開賣，賣完為止","phone":"(05)7862551"},"geometry":{"type":"Point","coordinates":[120.334,23.61849]}},{"type":"Feature","properties":{"name":"開元藥局","id":"5940011302","updateTime":"2022/05/07 22:57:32","stock":2,"label":"羅氏家用新冠病毒抗原自我檢測套組","address":"嘉義縣朴子市開元路１５４號","remark":"週一至週五08:30~售完為止，週六、週日到貨即賣~售完為止。","phone":"(05)3700014"},"geometry":{"type":"Point","coordinates":[120.2446,23.46725]}},{"type":"Feature","properties":{"name":"一心藥局","id":"5940131283","updateTime":"2022/05/07 22:57:32","stock":60,"label":"羅氏家用新冠病毒抗原自我檢測套組","address":"嘉義縣中埔鄉富收村頂中下街３１、３１－１號１樓","remark":"無","phone":"(05)2303553"},"geometry":{"type":"Point","coordinates":[120.4885,23.45077]}},{"type":"Feature","properties":{"name":"立達藥局","id":"5942190039","updateTime":"2022/05/07 22:57:32","stock":61,"label":"羅氏家用新冠病毒抗原自我檢測套組","address":"高雄市彌陀區中正西路２５９－２號","remark":"★快篩以到貨時間為主，到貨即販售，建議電話詢問以免撲空，恕不預留★","phone":"(07)6179277"},"geometry":{"type":"Point","coordinates":[120.2453,22.785]}},{"type":"Feature","properties":{"name":"全民藥局","id":"5944020558","updateTime":"2022/05/07 22:57:32","stock":39,"label":"羅氏家用新冠病毒抗原自我檢測套組","address":"澎湖縣湖西鄉湖西村１５０－３號","remark":"中午12:00-13:30休息","phone":"(06)9920403"},"geometry":{"type":"Point","coordinates":[119.6603,23.5844]}},{"type":"Feature","properties":{"name":"伯安健康藥局","id":"5946080552","updateTime":"2022/05/07 22:57:32","stock":96,"label":"羅氏家用新冠病毒抗原自我檢測套組","address":"臺東縣長濱鄉長濱村１０鄰長濱路１０５號","remark":"無","phone":"(089)832519"},"geometry":{"type":"Point","coordinates":[121.4515,23.31496]}},{"type":"Feature","properties":{"name":"伯安藥局","id":"5946101118","updateTime":"2022/05/07 22:57:32","stock":31,"label":"羅氏家用新冠病毒抗原自我檢測套組","address":"臺東縣池上鄉新生路１１６號","remark":"早0800-1200，午1400-1800，晚1800-2000","phone":"(089)863585"},"geometry":{"type":"Point","coordinates":[121.2187,23.12315]}}]}