{"type":"FeatureCollection","features":[{"type":"Feature","properties":{"name":"嘉義縣大埔鄉衛生所","id":"2340170016","updateTime":"2022/05/06 15:57:32","stock":78,"label":"羅氏家用新冠病毒抗原自我檢測套組","address":"嘉義縣大埔鄉大埔村５３－１號","remark":"無","phone":"(05)2521214"},"geometry":{"type":"Point","coordinates":[120.5928,23.29397]}},{"type":"Feature","properties":{"name":"高雄市田寮區衛生所","id":"2342130010","updateTime":"2022/05/06 15:57:32","stock":77,"label":"羅氏家用新冠病毒抗原自我檢測套組","address":"高雄市田寮區南安里崗北路３２號","remark":"巡迴醫療:每星期一、四下午及每月第一個有上班的星期三下午巡迴醫療","phone":"(07)6361504"},"geometry":{"type":"Point","coordinates":[120.3594,22.87301]}},{"type":"Feature","properties":{"name":"高雄市茂林區衛生所","id":"2342250017","updateTime":"2022/05/06 15:57:32","stock":60,"label":"羅氏家用新冠病毒抗原自我檢測套組","address":"高雄市茂林區茂林里茂林巷８－４號","remark":"夜間急診，請先撥電話07-6801046","phone":"(07)6801046"},"geometry":{"type":"Point","coordinates":[120.6641,22.88641]}},{"type":"Feature","properties":{"name":"高雄市桃源區衛生所","id":"2342260013","updateTime":"2022/05/06 15:57:32","stock":82,"label":"羅氏家用新冠病毒抗原自我檢測套組","address":"高雄市桃源區桃源里南進巷１８８－１號","remark":"IDS提供24小時服務","phone":"(07)6861126"},"geometry":{"type":"Point","coordinates":[120.7642,23.15845]}},{"type":"Feature","properties":{"name":"高雄市那瑪夏區衛生所","id":"2342270019","updateTime":"2022/05/06 15:57:32","stock":275,"label":"羅氏家用新冠病毒抗原自我檢測套組","address":"高雄市那瑪夏區瑪雅里６鄰平和巷２５２號","remark":"春節期間正常門診","phone":"(07)6701142"},"geometry":{"type":"Point","coordinates":[120.7024,23.24708]}},{"type":"Feature","properties":{"name":"澎湖縣馬公市第三衛生所","id":"2344011036","updateTime":"2022/05/06 15:57:32","stock":24,"label":"羅氏家用新冠病毒抗原自我檢測套組","address":"澎湖縣馬公市西文里１１８之２號","remark":"本所快篩試劑只提供離島衛生室（虎井、桶盤）販售，時間週一至週五08:30-17:00售完為止，星期六、日國定假日09:00-12:00。","phone":"(06)9211723"},"geometry":{"type":"Point","coordinates":[119.5836,23.56813]}},{"type":"Feature","properties":{"name":"澎湖縣白沙鄉鳥嶼衛生所","id":"2344030022","updateTime":"2022/05/06 15:57:32","stock":85,"label":"羅氏家用新冠病毒抗原自我檢測套組","address":"澎湖縣白沙鄉鳥嶼村漁港新村３號","remark":"非上班時間提供急診服務","phone":"(06)9916092"},"geometry":{"type":"Point","coordinates":[119.6599,23.66008]}},{"type":"Feature","properties":{"name":"澎湖縣白沙鄉吉貝衛生所","id":"2344030031","updateTime":"2022/05/06 15:57:32","stock":38,"label":"羅氏家用新冠病毒抗原自我檢測套組","address":"澎湖縣白沙鄉吉貝村８－１３號","remark":"無","phone":"(06)9911430"},"geometry":{"type":"Point","coordinates":[119.6138,23.74056]}},{"type":"Feature","properties":{"name":"澎湖縣望安鄉衛生所","id":"2344050015","updateTime":"2022/05/06 15:57:32","stock":131,"label":"羅氏家用新冠病毒抗原自我檢測套組","address":"澎湖縣望安鄉西安村３６－７號","remark":"夜間急診。口罩、快篩試劑販售時間為:每日08:00-12:00、13:30-17:30售完為止，如有餘數為離島未售出（東嶼坪、花嶼）。","phone":"(06)9991036"},"geometry":{"type":"Point","coordinates":[119.4972,23.36161]}},{"type":"Feature","properties":{"name":"澎湖縣望安鄉將軍衛生所","id":"2344050024","updateTime":"2022/05/06 15:57:32","stock":150,"label":"羅氏家用新冠病毒抗原自我檢測套組","address":"澎湖縣望安鄉將軍村１２鄰將軍澳１之３號","remark":"24小時急診","phone":"(06)9902066"},"geometry":{"type":"Point","coordinates":[119.5216,23.3615]}},{"type":"Feature","properties":{"name":"澎湖縣七美鄉衛生所","id":"2344060011","updateTime":"2022/05/06 15:57:32","stock":53,"label":"羅氏家用新冠病毒抗原自我檢測套組","address":"澎湖縣七美鄉中和村埔內５４號","remark":"無","phone":"(06)9971005"},"geometry":{"type":"Point","coordinates":[119.431,23.2041]}},{"type":"Feature","properties":{"name":"連江縣莒光鄉西莒衛生所","id":"2391030016","updateTime":"2022/05/06 15:57:32","stock":326,"label":"羅氏家用新冠病毒抗原自我檢測套組","address":"連江縣莒光鄉青帆村１４－１號","remark":"防疫口罩星期一至五09:00-17:00、（六）09:00-12:00現場購買","phone":"(083)689122"},"geometry":{"type":"Point","coordinates":[119.9331,25.97157]}},{"type":"Feature","properties":{"name":"連江縣莒光鄉東莒衛生所","id":"2391030026","updateTime":"2022/05/06 15:57:32","stock":460,"label":"羅氏家用新冠病毒抗原自我檢測套組","address":"連江縣莒光鄉大坪村３０－１號","remark":"防疫口罩星期一至星期日上午10:00-12:00收取健保卡，下午3:30至本所領取口罩。","phone":"(083)689038"},"geometry":{"type":"Point","coordinates":[119.9731,25.96113]}},{"type":"Feature","properties":{"name":"予志藥局","id":"5901012570","updateTime":"2022/05/06 15:57:32","stock":78,"label":"羅氏家用新冠病毒抗原自我檢測套組","address":"臺北市松山區富錦街５２１號","remark":"實名制快篩星期一到三下午2點、星期四到六晚上8點、星期日停售","phone":"(02)27623522"},"geometry":{"type":"Point","coordinates":[121.5649,25.06119]}},{"type":"Feature","properties":{"name":"婕登藥局","id":"5901012598","updateTime":"2022/05/06 15:57:32","stock":5,"label":"羅氏家用新冠病毒抗原自我檢測套組","address":"臺北市松山區八德路４段６９９號","remark":"今天快篩已經發送完畢（電腦庫存不準）","phone":"(02)27482893"},"geometry":{"type":"Point","coordinates":[121.5766,25.05021]}},{"type":"Feature","properties":{"name":"躍獅松和藥局","id":"5901012749","updateTime":"2022/05/06 15:57:32","stock":78,"label":"羅氏家用新冠病毒抗原自我檢測套組","address":"臺北市松山區八德路四段６６６－１號","remark":"實名制快篩販售時段，每日下午4點販售，售完為止","phone":"(02)27492569"},"geometry":{"type":"Point","coordinates":[121.5761,25.04979]}},{"type":"Feature","properties":{"name":"康采藥局","id":"5901013095","updateTime":"2022/05/06 15:57:32","stock":72,"label":"羅氏家用新冠病毒抗原自我檢測套組","address":"臺北市松山區南京東路５段２９１巷１７－２號","remark":"（已完售，庫存不準）快篩試劑每日16點販售，週日沒有販售","phone":"(02)27670271"},"geometry":{"type":"Point","coordinates":[121.5663,25.05236]}},{"type":"Feature","properties":{"name":"松山八德藥局","id":"5901013442","updateTime":"2022/05/06 15:57:32","stock":78,"label":"羅氏家用新冠病毒抗原自我檢測套組","address":"臺北市松山區八德路２段４００號","remark":"快篩實名制，每天16:00開始販售，售完為止。","phone":"(02)27782773"},"geometry":{"type":"Point","coordinates":[121.5466,25.04804]}},{"type":"Feature","properties":{"name":"民生盛康藥局","id":"5901013693","updateTime":"2022/05/06 15:57:32","stock":120,"label":"羅氏家用新冠病毒抗原自我檢測套組","address":"臺北市松山區民生東路５段２０４號１樓","remark":"【每日70分】每日早上9:00發號碼牌，14:00~20:00拿號碼牌回來領取，每人限1張號碼牌，逾時不候","phone":"(02)27460758"},"geometry":{"type":"Point","coordinates":[121.5648,25.05826]}},{"type":"Feature","properties":{"name":"杏一台北台安藥局","id":"5901013700","updateTime":"2022/05/06 15:57:32","stock":9,"label":"羅氏家用新冠病毒抗原自我檢測套組","address":"臺北市松山區八德路２段３９９號１樓","remark":"快篩實名制販售時間為每天下午15:00，開賣前10分鐘發放號碼牌，售完為止","phone":"(02)87728295"},"geometry":{"type":"Point","coordinates":[121.5465,25.04833]}},{"type":"Feature","properties":{"name":"大樹松山藥局","id":"5901013719","updateTime":"2022/05/06 15:57:32","stock":78,"label":"羅氏家用新冠病毒抗原自我檢測套組","address":"臺北市松山區民生東路５段１０７號１樓","remark":"快篩實名制，每天16:00開始販售，售完為止。","phone":"(02)27562226"},"geometry":{"type":"Point","coordinates":[121.5601,25.05878]}},{"type":"Feature","properties":{"name":"全欣藥局","id":"5901013737","updateTime":"2022/05/06 15:57:32","stock":9,"label":"羅氏家用新冠病毒抗原自我檢測套組","address":"臺北市松山區復興北路７３號２樓","remark":"9:00am開始販售30人份15:00販售30人份:18:00販售17人份；週六:9:00販售39人份；週日:15:00販售39人份....排隊人數滿會先發號碼","phone":"(02)87729066"},"geometry":{"type":"Point","coordinates":[121.5442,25.05104]}},{"type":"Feature","properties":{"name":"博昱大藥局","id":"5901024687","updateTime":"2022/05/06 15:57:32","stock":56,"label":"羅氏家用新冠病毒抗原自我檢測套組","address":"臺北市大安區樂業街１４８號、１５０號","remark":"快篩發放為周一至周五1600開始發放","phone":"(02)23776199"},"geometry":{"type":"Point","coordinates":[121.5529,25.01998]}},{"type":"Feature","properties":{"name":"康祥藥局","id":"5901024918","updateTime":"2022/05/06 15:57:32","stock":78,"label":"羅氏家用新冠病毒抗原自我檢測套組","address":"臺北市大安區忠孝東路４段２１６巷２１號","remark":"星期天11:00-19:00","phone":"(02)27817891"},"geometry":{"type":"Point","coordinates":[121.5531,25.04025]}},{"type":"Feature","properties":{"name":"博醫仁愛藥局","id":"5901025059","updateTime":"2022/05/06 15:57:32","stock":1,"label":"羅氏家用新冠病毒抗原自我檢測套組","address":"臺北市大安區仁愛路４段８巷２號１樓","remark":"每天11:30發號碼牌，12:00~15:00憑號碼牌與健保卡購買實名制快篩","phone":"(02)27019107"},"geometry":{"type":"Point","coordinates":[121.5443,25.0375]}},{"type":"Feature","properties":{"name":"大同民生藥局","id":"5901092130","updateTime":"2022/05/06 15:57:32","stock":78,"label":"羅氏家用新冠病毒抗原自我檢測套組","address":"臺北市大同區民生西路１２８號１樓、２樓及１３０號１樓、２樓","remark":"快篩實名制，每天16:00開始販售，售完為止。","phone":"(02)25558886"},"geometry":{"type":"Point","coordinates":[121.5191,25.05734]}},{"type":"Feature","properties":{"name":"永直藥局","id":"5901101509","updateTime":"2022/05/06 15:57:32","stock":239,"label":"羅氏家用新冠病毒抗原自我檢測套組","address":"臺北市中山區北安路５９５巷２弄６號","remark":"今日號碼牌（5／6）已發完，周一至周六早上8點發號碼牌，下午2點到晚上8點販售（拿號碼牌來買）","phone":"(02)85098059"},"geometry":{"type":"Point","coordinates":[121.5483,25.08192]}},{"type":"Feature","properties":{"name":"啟美藥師藥局","id":"5901102444","updateTime":"2022/05/06 15:57:32","stock":78,"label":"羅氏家用新冠病毒抗原自我檢測套組","address":"臺北市中山區錦州街２８２號","remark":"快篩 販售時間 20點開賣到21點，星期六日公休","phone":"(02)25178032"},"geometry":{"type":"Point","coordinates":[121.5352,25.06024]}},{"type":"Feature","properties":{"name":"德惠藥局","id":"5901102597","updateTime":"2022/05/06 15:57:32","stock":11,"label":"羅氏家用新冠病毒抗原自我檢測套組","address":"臺北市中山區德惠街１２２號","remark":"每日下午3點30分開始販售快篩實名制","phone":"(02)25971131"},"geometry":{"type":"Point","coordinates":[121.53,25.06652]}},{"type":"Feature","properties":{"name":"十二願藥局","id":"5901103629","updateTime":"2022/05/06 15:57:32","stock":71,"label":"羅氏家用新冠病毒抗原自我檢測套組","address":"臺北市中山區林森北路３０９號","remark":"快篩晚上8點開始發放.營業時間下午1點至凌晨3點","phone":"(02)25311223"},"geometry":{"type":"Point","coordinates":[121.5256,25.05588]}},{"type":"Feature","properties":{"name":"大樹龍江藥局","id":"5901103656","updateTime":"2022/05/06 15:57:32","stock":78,"label":"羅氏家用新冠病毒抗原自我檢測套組","address":"臺北市中山區龍江路２４２號","remark":"國定假日仍執行調劑業務","phone":"(02)25035666"},"geometry":{"type":"Point","coordinates":[121.5406,25.05889]}},{"type":"Feature","properties":{"name":"康廷藥局","id":"5901103674","updateTime":"2022/05/06 15:57:32","stock":4,"label":"羅氏家用新冠病毒抗原自我檢測套組","address":"臺北市中山區北安路６１１號（實際營業地址：１層）","remark":"國定假日執行調劑業務","phone":"(02)25335890"},"geometry":{"type":"Point","coordinates":[121.5488,25.08253]}},{"type":"Feature","properties":{"name":"吉林藥局","id":"5901103745","updateTime":"2022/05/06 15:57:32","stock":78,"label":"羅氏家用新冠病毒抗原自我檢測套組","address":"臺北市中山區吉林路３７１號（１樓）","remark":"快篩實名制，每天16:00開始販售，售完為止。","phone":"(02)25865990"},"geometry":{"type":"Point","coordinates":[121.5305,25.06511]}},{"type":"Feature","properties":{"name":"明湖藥局","id":"5901110393","updateTime":"2022/05/06 15:57:32","stock":3,"label":"羅氏家用新冠病毒抗原自我檢測套組","address":"臺北市內湖區東湖路７巷２７號１Ｆ","remark":"快篩實名制，下午2點半販售。","phone":"(02)26313515"},"geometry":{"type":"Point","coordinates":[121.6125,25.0697]}},{"type":"Feature","properties":{"name":"昇龍藥局","id":"5901112995","updateTime":"2022/05/06 15:57:32","stock":2,"label":"羅氏家用新冠病毒抗原自我檢測套組","address":"臺北市內湖區東湖路１５１號","remark":"營業時間為早上8點到晚上10點；實名制快篩於每日下午一點前領取，​但若排隊人數已超過數量，將視情況提早發放。","phone":"(02)26316783"},"geometry":{"type":"Point","coordinates":[121.6174,25.0681]}},{"type":"Feature","properties":{"name":"桔子藥局","id":"5901113018","updateTime":"2022/05/06 15:57:32","stock":78,"label":"羅氏家用新冠病毒抗原自我檢測套組","address":"臺北市內湖區內湖路２段３３３號","remark":"早0900-1200，午1400-1700，晚1900-2100","phone":"(02)27930052"},"geometry":{"type":"Point","coordinates":[121.5917,25.08319]}},{"type":"Feature","properties":{"name":"大內湖藥局","id":"5901113250","updateTime":"2022/05/06 15:57:32","stock":78,"label":"羅氏家用新冠病毒抗原自我檢測套組","address":"臺北市內湖區成功路３段１６４號１樓","remark":"5／5-5／7下午16:00開始發售，5／8（日）起早上9:30開始發售","phone":"(02)27956286"},"geometry":{"type":"Point","coordinates":[121.5903,25.08035]}},{"type":"Feature","properties":{"name":"內湖藥局","id":"5901113661","updateTime":"2022/05/06 15:57:32","stock":78,"label":"羅氏家用新冠病毒抗原自我檢測套組","address":"臺北市內湖區康寧路１段１１６號１樓","remark":"快篩實名制，每天16:00開始販售，售完為止。","phone":"(02)27940545"},"geometry":{"type":"Point","coordinates":[121.5934,25.07948]}},{"type":"Feature","properties":{"name":"景星藥局","id":"5901121903","updateTime":"2022/05/06 15:57:32","stock":78,"label":"羅氏家用新冠病毒抗原自我檢測套組","address":"臺北市南港區南港路３段２６號","remark":"每日下午4:30-5:30 快篩實名制  開始販售（沒有發號碼牌）（周日固定公休）","phone":"(02)27838816"},"geometry":{"type":"Point","coordinates":[121.5924,25.05434]}},{"type":"Feature","properties":{"name":"心亮藥局","id":"5901121958","updateTime":"2022/05/06 15:57:32","stock":60,"label":"羅氏家用新冠病毒抗原自我檢測套組","address":"臺北市南港區玉成街６６之７號","remark":"無","phone":"(02)27881677"},"geometry":{"type":"Point","coordinates":[121.5818,25.04692]}},{"type":"Feature","properties":{"name":"躍獅忠孝藥局","id":"5901122062","updateTime":"2022/05/06 15:57:32","stock":14,"label":"羅氏家用新冠病毒抗原自我檢測套組","address":"臺北市南港區成福路１６號","remark":"無","phone":"(02)27862829"},"geometry":{"type":"Point","coordinates":[121.586,25.04561]}},{"type":"Feature","properties":{"name":"田倉藥局","id":"5901150548","updateTime":"2022/05/06 15:57:32","stock":78,"label":"羅氏家用新冠病毒抗原自我檢測套組","address":"臺北市士林區士東路１２４號","remark":"每日19:00（傍晚7點）開始販售.","phone":"(02)88662188"},"geometry":{"type":"Point","coordinates":[121.5302,25.11219]}},{"type":"Feature","properties":{"name":"家赫藥局","id":"5901152453","updateTime":"2022/05/06 15:57:32","stock":3,"label":"羅氏家用新冠病毒抗原自我檢測套組","address":"臺北市士林區忠義街８０號１樓","remark":"每日下午2:40開始發號碼牌販售實名制快篩","phone":"(02)28346453"},"geometry":{"type":"Point","coordinates":[121.5317,25.10614]}},{"type":"Feature","properties":{"name":"得安藥局","id":"5901152471","updateTime":"2022/05/06 15:57:32","stock":111,"label":"羅氏家用新冠病毒抗原自我檢測套組","address":"臺北市士林區文林路１４０號","remark":"星期三五六下午3:30---10:00   星期二 四日下午5:00--10:00","phone":"(02)28836336"},"geometry":{"type":"Point","coordinates":[121.5267,25.08878]}},{"type":"Feature","properties":{"name":"大南春天生活藥局","id":"5901153432","updateTime":"2022/05/06 15:57:32","stock":1,"label":"羅氏家用新冠病毒抗原自我檢測套組","address":"臺北市士林區大南路３１７、３１９號","remark":"本藥局可領慢箋 快篩是下午3點開始販售 售完為止（物流無配送&配送不及例外）","phone":"(02)28882196"},"geometry":{"type":"Point","coordinates":[121.518,25.08888]}},{"type":"Feature","properties":{"name":"家安健保藥局","id":"5901153610","updateTime":"2022/05/06 15:57:32","stock":25,"label":"羅氏家用新冠病毒抗原自我檢測套組","address":"臺北市士林區德行東路１０９巷１１９號","remark":"因目前當日販售快篩當日配送，目前銷售時間改為下午4:00 造成不便 敬請見諒","phone":"(02)28322182"},"geometry":{"type":"Point","coordinates":[121.5288,25.11156]}},{"type":"Feature","properties":{"name":"愛佳藥局","id":"5901153674","updateTime":"2022/05/06 15:57:32","stock":156,"label":"羅氏家用新冠病毒抗原自我檢測套組","address":"臺北市士林區承德路４段２２２之１號","remark":"實名制快篩平日一~五下午5:00販售，假日（六、日）不販售","phone":"(02)28811199"},"geometry":{"type":"Point","coordinates":[121.5215,25.0885]}},{"type":"Feature","properties":{"name":"士東藥局","id":"5901153941","updateTime":"2022/05/06 15:57:32","stock":78,"label":"羅氏家用新冠病毒抗原自我檢測套組","address":"臺北市士林區士東路９１巷３號","remark":"快篩實名制，每天16:00開始販售，售完為止。","phone":"(02)28760588"},"geometry":{"type":"Point","coordinates":[121.5291,25.11256]}},{"type":"Feature","properties":{"name":"向宇藥局","id":"5901154028","updateTime":"2022/05/06 15:57:32","stock":79,"label":"羅氏家用新冠病毒抗原自我檢測套組","address":"臺北市士林區德行東路２１７號１樓","remark":"無","phone":"(02)88661101"},"geometry":{"type":"Point","coordinates":[121.5328,25.10935]}},{"type":"Feature","properties":{"name":"誠泰中西藥局","id":"5901154135","updateTime":"2022/05/06 15:57:32","stock":76,"label":"羅氏家用新冠病毒抗原自我檢測套組","address":"臺北市士林區永平街１３號１樓","remark":"周一到周六晚上7:00開始販賣，  周日休息","phone":"(02)88112352"},"geometry":{"type":"Point","coordinates":[121.5051,25.08996]}},{"type":"Feature","properties":{"name":"九福藥局","id":"5901160428","updateTime":"2022/05/06 15:57:32","stock":4,"label":"羅氏家用新冠病毒抗原自我檢測套組","address":"臺北市北投區公館路２３６號","remark":"★週日店休未營業. 快篩下午1點發號碼牌","phone":"(02)28953009"},"geometry":{"type":"Point","coordinates":[121.5081,25.12612]}},{"type":"Feature","properties":{"name":"黎明藥局","id":"5901160544","updateTime":"2022/05/06 15:57:32","stock":35,"label":"羅氏家用新冠病毒抗原自我檢測套組","address":"臺北市北投區尊賢街２５３－１號","remark":"營業時間星期1-6早上900至1230 下午1600至2100每日 下午4點發快篩星期日其他時間休息","phone":"(02)28223795"},"geometry":{"type":"Point","coordinates":[121.5066,25.11817]}},{"type":"Feature","properties":{"name":"良興藥局","id":"5901161890","updateTime":"2022/05/06 15:57:32","stock":53,"label":"羅氏家用新冠病毒抗原自我檢測套組","address":"臺北市北投區中和街２８６號","remark":"18點30分點開始營業","phone":"(02)28933360"},"geometry":{"type":"Point","coordinates":[121.5004,25.14047]}},{"type":"Feature","properties":{"name":"心樂藥局","id":"5901163634","updateTime":"2022/05/06 15:57:32","stock":50,"label":"羅氏家用新冠病毒抗原自我檢測套組","address":"臺北市北投區致遠一路２段１０５號１樓","remark":"您好。發放快篩時間:周一二三五六早上8:30-09:00，週四加開早上10-11點，周一二三五 下午4:00-4:30，周日及國定假日休息","phone":"(02)28210261"},"geometry":{"type":"Point","coordinates":[121.5128,25.1131]}},{"type":"Feature","properties":{"name":"福華藥局","id":"5901170139","updateTime":"2022/05/06 15:57:32","stock":78,"label":"羅氏家用新冠病毒抗原自我檢測套組","address":"臺北市信義區吳興街２８１巷３號１樓","remark":"現階段下午1:30配合政府發售快篩試劑","phone":"(02)27208527"},"geometry":{"type":"Point","coordinates":[121.5643,25.02656]}},{"type":"Feature","properties":{"name":"正和藥局","id":"5901173238","updateTime":"2022/05/06 15:57:32","stock":1,"label":"羅氏家用新冠病毒抗原自我檢測套組","address":"臺北市信義區吳興街２２５巷６號","remark":"下午2點半發放快篩","phone":"(02)23455186"},"geometry":{"type":"Point","coordinates":[121.5634,25.02782]}},{"type":"Feature","properties":{"name":"尚頤中西藥局","id":"5901173738","updateTime":"2022/05/06 15:57:32","stock":79,"label":"羅氏家用新冠病毒抗原自我檢測套組","address":"臺北市信義區虎林街１４５號","remark":"無","phone":"(02)27253818"},"geometry":{"type":"Point","coordinates":[121.5767,25.03959]}},{"type":"Feature","properties":{"name":"博亞藥局","id":"5901173818","updateTime":"2022/05/06 15:57:32","stock":40,"label":"羅氏家用新冠病毒抗原自我檢測套組","address":"臺北市信義區莊敬路４６２號","remark":"平日早上8:30、晚上8:00；假日早上8:30，發放號碼牌，持號碼牌購買!","phone":"(02)27580506"},"geometry":{"type":"Point","coordinates":[121.5677,25.02672]}},{"type":"Feature","properties":{"name":"吳興春天藥局","id":"5901174002","updateTime":"2022/05/06 15:57:32","stock":7,"label":"羅氏家用新冠病毒抗原自我檢測套組","address":"臺北市信義區吳興街１３７號１樓","remark":"下午2:40發號碼牌","phone":"(02)27585618"},"geometry":{"type":"Point","coordinates":[121.5618,25.02947]}},{"type":"Feature","properties":{"name":"詠晴中西藥局","id":"5901174057","updateTime":"2022/05/06 15:57:32","stock":2,"label":"羅氏家用新冠病毒抗原自我檢測套組","address":"臺北市信義區松山路４８４之４號（１樓含夾層）","remark":"實名制快篩 - 16:30領號碼牌.當天取貨即可.避免群聚風險","phone":"(02)27266890"},"geometry":{"type":"Point","coordinates":[121.5778,25.0389]}},{"type":"Feature","properties":{"name":"愛維喜藥局","id":"5901174066","updateTime":"2022/05/06 15:57:32","stock":1,"label":"羅氏家用新冠病毒抗原自我檢測套組","address":"臺北市信義區莊敬路２７８號１樓","remark":"快篩周一至周五下午3:30開賣.約3:00收健保卡現金500元1張.發號碼牌","phone":"(02)27586989"},"geometry":{"type":"Point","coordinates":[121.5627,25.02882]}},{"type":"Feature","properties":{"name":"市政藥局","id":"5901174084","updateTime":"2022/05/06 15:57:32","stock":78,"label":"羅氏家用新冠病毒抗原自我檢測套組","address":"臺北市信義區忠孝東路５段１６９號１樓、１７１號１樓","remark":"快篩實名制，每天16:00開始販售，售完為止。","phone":"(02)27560050"},"geometry":{"type":"Point","coordinates":[121.5688,25.0412]}},{"type":"Feature","properties":{"name":"活力健康藥妝藥局","id":"5901184080","updateTime":"2022/05/06 15:57:32","stock":7,"label":"羅氏家用新冠病毒抗原自我檢測套組","address":"臺北市中正區中華路２段３１５巷１號","remark":"快篩14:00-15:00， 建議提早排隊","phone":"(02)23392625"},"geometry":{"type":"Point","coordinates":[121.5062,25.02795]}},{"type":"Feature","properties":{"name":"躍獅南門藥局","id":"5901184491","updateTime":"2022/05/06 15:57:32","stock":78,"label":"羅氏家用新冠病毒抗原自我檢測套組","address":"臺北市中正區中華路２段３９巷１０號","remark":"口罩販售時段：成人早上9點及晚上7點各200個","phone":"(02)23141111"},"geometry":{"type":"Point","coordinates":[121.5074,25.03484]}},{"type":"Feature","properties":{"name":"珍忻藥局","id":"5901184553","updateTime":"2022/05/06 15:57:32","stock":10,"label":"羅氏家用新冠病毒抗原自我檢測套組","address":"臺北市中正區南昌路１段６５號","remark":"健保快篩發放:13:20及18:20分兩梯次發號碼牌","phone":"(02)23965115"},"geometry":{"type":"Point","coordinates":[121.5174,25.03107]}},{"type":"Feature","properties":{"name":"躍獅東門藥局","id":"5901184633","updateTime":"2022/05/06 15:57:32","stock":34,"label":"羅氏家用新冠病毒抗原自我檢測套組","address":"臺北市中正區金山南路１段１０８之１號（１樓）","remark":"5／6銷售時間已結束。5／7下午兩點開始販售，不提早發放號碼牌","phone":"(02)23920339"},"geometry":{"type":"Point","coordinates":[121.5273,25.03538]}},{"type":"Feature","properties":{"name":"聯慶大藥局","id":"5901190668","updateTime":"2022/05/06 15:57:32","stock":1,"label":"羅氏家用新冠病毒抗原自我檢測套組","address":"臺北市萬華區萬大路３０６號１樓","remark":"無","phone":"(02)23039850"},"geometry":{"type":"Point","coordinates":[121.5003,25.02495]}},{"type":"Feature","properties":{"name":"康之友藥局","id":"5901192180","updateTime":"2022/05/06 15:57:32","stock":1,"label":"羅氏家用新冠病毒抗原自我檢測套組","address":"臺北市萬華區青年路２０號","remark":"下午兩點發號碼牌","phone":"(02)23011598"},"geometry":{"type":"Point","coordinates":[121.5055,25.02592]}},{"type":"Feature","properties":{"name":"萬華藥局","id":"5901192975","updateTime":"2022/05/06 15:57:32","stock":78,"label":"羅氏家用新冠病毒抗原自我檢測套組","address":"臺北市萬華區萬大路２４８號實際營業地址１樓、２樓","remark":"快篩實名制，每天16:00開始販售，售完為止。","phone":"(02)23012221"},"geometry":{"type":"Point","coordinates":[121.5003,25.02626]}},{"type":"Feature","properties":{"name":"正盛藥局","id":"5901193221","updateTime":"2022/05/06 15:57:32","stock":60,"label":"羅氏家用新冠病毒抗原自我檢測套組","address":"臺北市萬華區中華路２段４３４－１號","remark":"1.快篩一~六20點，周日不賣 2.目前排隊人潮多，建議7點左右提前候位 3.詳情請看門口公告或板橋正康總店臉書","phone":"(02)23050386"},"geometry":{"type":"Point","coordinates":[121.5064,25.02708]}},{"type":"Feature","properties":{"name":"富安藥局","id":"5901193301","updateTime":"2022/05/06 15:57:32","stock":78,"label":"羅氏家用新冠病毒抗原自我檢測套組","address":"臺北市萬華區萬大路４２６號","remark":"快篩實名制：一人一卡，現場排隊，售完為止。【5／3早上暫停販售，販售時間待更新！】","phone":"(02)23377878"},"geometry":{"type":"Point","coordinates":[121.4981,25.02096]}},{"type":"Feature","properties":{"name":"和德藥局","id":"5901193310","updateTime":"2022/05/06 15:57:32","stock":78,"label":"羅氏家用新冠病毒抗原自我檢測套組","address":"臺北市萬華區西園路２段２９２號１樓","remark":"快篩實名制，每天16:00開始販售，售完為止。","phone":"(02)23331522"},"geometry":{"type":"Point","coordinates":[121.4935,25.02698]}},{"type":"Feature","properties":{"name":"艾米力藥師藥局","id":"5901193338","updateTime":"2022/05/06 15:57:32","stock":72,"label":"羅氏家用新冠病毒抗原自我檢測套組","address":"臺北市萬華區西藏路１０７－２號１樓","remark":"實名制快篩：周一~周五 晚上7:00販售；周末（六日）早上9:00販售","phone":"(02)23036583"},"geometry":{"type":"Point","coordinates":[121.5035,25.02955]}},{"type":"Feature","properties":{"name":"康宜庭生活藥局","id":"5901201568","updateTime":"2022/05/06 15:57:32","stock":8,"label":"羅氏家用新冠病毒抗原自我檢測套組","address":"臺北市文山區興隆路４段６４號","remark":"實名快篩14:00開賣 現場排隊","phone":"(02)29385363"},"geometry":{"type":"Point","coordinates":[121.5613,24.98514]}},{"type":"Feature","properties":{"name":"欣安景美藥局","id":"5901202841","updateTime":"2022/05/06 15:57:32","stock":10,"label":"羅氏家用新冠病毒抗原自我檢測套組","address":"臺北市文山區景文街７７號","remark":"今日快篩劑PM:14:00販賣售完為止","phone":"(02)29316008"},"geometry":{"type":"Point","coordinates":[121.5414,24.99126]}},{"type":"Feature","properties":{"name":"萬隆大藥局","id":"5901202949","updateTime":"2022/05/06 15:57:32","stock":88,"label":"羅氏家用新冠病毒抗原自我檢測套組","address":"臺北市文山區羅斯福路５段２１８巷１５號","remark":"9：00~23：00","phone":"(02)29334580"},"geometry":{"type":"Point","coordinates":[121.538,25.00203]}},{"type":"Feature","properties":{"name":"杏一萬安藥局","id":"5901202958","updateTime":"2022/05/06 15:57:32","stock":1,"label":"羅氏家用新冠病毒抗原自我檢測套組","address":"臺北市文山區萬安街１５號","remark":"營業時間0900-2200","phone":"(02)22302126"},"geometry":{"type":"Point","coordinates":[121.5706,25.00139]}},{"type":"Feature","properties":{"name":"大樹文山藥局","id":"5901203062","updateTime":"2022/05/06 15:57:32","stock":78,"label":"羅氏家用新冠病毒抗原自我檢測套組","address":"臺北市文山區興隆路３段１３號（１、２、３樓）","remark":"口罩販售時間：14:00 - 16:00","phone":"(02)29342226"},"geometry":{"type":"Point","coordinates":[121.555,25.00088]}},{"type":"Feature","properties":{"name":"專品政大藥局","id":"5901203295","updateTime":"2022/05/06 15:57:32","stock":1,"label":"羅氏家用新冠病毒抗原自我檢測套組","address":"臺北市文山區指南路２段８號","remark":"無","phone":"(02)22343010"},"geometry":{"type":"Point","coordinates":[121.5742,24.98784]}},{"type":"Feature","properties":{"name":"大樹木柵藥局","id":"5901203366","updateTime":"2022/05/06 15:57:32","stock":78,"label":"羅氏家用新冠病毒抗原自我檢測套組","address":"臺北市文山區木柵路３段１０８號、１１０號（１樓、２樓）","remark":"快篩實名制，每天16:00開始販售，售完為止。","phone":"(02)22340110"},"geometry":{"type":"Point","coordinates":[121.5676,24.98866]}},{"type":"Feature","properties":{"name":"大樹景美藥局","id":"5901203375","updateTime":"2022/05/06 15:57:32","stock":78,"label":"羅氏家用新冠病毒抗原自我檢測套組","address":"臺北市文山區羅斯福路６段２３４之１號","remark":"快篩實名制，每天16:00開始販售，售完為止。","phone":"(02)29322951"},"geometry":{"type":"Point","coordinates":[121.5404,24.99244]}},{"type":"Feature","properties":{"name":"健康家藥局","id":"5901203482","updateTime":"2022/05/06 15:57:32","stock":3,"label":"羅氏家用新冠病毒抗原自我檢測套組","address":"臺北市文山區興隆路２段１３３號１樓","remark":"實名制快篩下午一點開始販售，5／1店休","phone":"(02)29330858"},"geometry":{"type":"Point","coordinates":[121.5481,25.00011]}},{"type":"Feature","properties":{"name":"永松藥局","id":"5902020012","updateTime":"2022/05/06 15:57:32","stock":3,"label":"羅氏家用新冠病毒抗原自我檢測套組","address":"高雄市鼓山區鼓山三路１３０－１５號","remark":"無","phone":"(07)5810657"},"geometry":{"type":"Point","coordinates":[120.2802,22.66454]}},{"type":"Feature","properties":{"name":"成吉藥局","id":"5902040014","updateTime":"2022/05/06 15:57:32","stock":71,"label":"羅氏家用新冠病毒抗原自我檢測套組","address":"高雄市楠梓區楠梓東街７４號","remark":"下午6點開始販賣實名制快篩，售完為止!!!星期日店休","phone":"(07)3513339"},"geometry":{"type":"Point","coordinates":[120.3301,22.72966]}},{"type":"Feature","properties":{"name":"元春中西藥師藥局","id":"5902042661","updateTime":"2022/05/06 15:57:32","stock":71,"label":"羅氏家用新冠病毒抗原自我檢測套組","address":"高雄市楠梓區後昌路８３７巷３７號","remark":"下午16.00開始為快篩領取時間，售完為止","phone":"(07)3605656"},"geometry":{"type":"Point","coordinates":[120.294,22.71109]}},{"type":"Feature","properties":{"name":"日星藥局","id":"5902050350","updateTime":"2022/05/06 15:57:32","stock":52,"label":"羅氏家用新冠病毒抗原自我檢測套組","address":"高雄市三民區寶龍里惠德街３８號","remark":"快篩口罩時間:星期一至五16:00-21:00；星期六09:00-11:30，售完為止","phone":"(07)3845188"},"geometry":{"type":"Point","coordinates":[120.3241,22.64741]}},{"type":"Feature","properties":{"name":"柏松藥局","id":"5902080545","updateTime":"2022/05/06 15:57:32","stock":65,"label":"羅氏家用新冠病毒抗原自我檢測套組","address":"高雄市苓雅區輔仁路１７５號","remark":"實名制快篩試劑.5／4.起.16:00開賣......售完為止!!","phone":"(07)7119786"},"geometry":{"type":"Point","coordinates":[120.3332,22.63065]}},{"type":"Feature","properties":{"name":"升禾和大藥局","id":"5903010556","updateTime":"2022/05/06 15:57:32","stock":78,"label":"羅氏家用新冠病毒抗原自我檢測套組","address":"臺中市豐原區育英路２６號１樓","remark":"快篩試劑1800領取.採現場排隊.售完為止","phone":"(04)25293099"},"geometry":{"type":"Point","coordinates":[120.7163,24.24346]}},{"type":"Feature","properties":{"name":"鹿寮藥局","id":"5903050274","updateTime":"2022/05/06 15:57:32","stock":78,"label":"羅氏家用新冠病毒抗原自我檢測套組","address":"臺中市沙鹿區中山路４６１、４６１－１號１、２樓","remark":"快篩實名制，每天16:00開始販售，售完為止。","phone":"(04)26630677"},"geometry":{"type":"Point","coordinates":[120.5615,24.24387]}},{"type":"Feature","properties":{"name":"民生藥局","id":"5903100206","updateTime":"2022/05/06 15:57:32","stock":78,"label":"羅氏家用新冠病毒抗原自我檢測套組","address":"臺中市大雅區民生路一段２２１號１樓","remark":"快篩實名制，每天16:00開始販售，售完為止。","phone":"(04)25662229"},"geometry":{"type":"Point","coordinates":[120.6512,24.22789]}},{"type":"Feature","properties":{"name":"溪南藥局","id":"5903150153","updateTime":"2022/05/06 15:57:32","stock":78,"label":"羅氏家用新冠病毒抗原自我檢測套組","address":"臺中市烏日區溪南路一段５６５號１樓","remark":"快篩實名制，每天16:00開始販售，售完為止。","phone":"(04)23353666"},"geometry":{"type":"Point","coordinates":[120.6431,24.07523]}},{"type":"Feature","properties":{"name":"九德藥局","id":"5903150180","updateTime":"2022/05/06 15:57:32","stock":78,"label":"羅氏家用新冠病毒抗原自我檢測套組","address":"臺中市烏日區中山路一段４３８、４４０號１樓","remark":"快篩實名制，每天16:00開始販售，售完為止。","phone":"(04)23385456"},"geometry":{"type":"Point","coordinates":[120.6365,24.10748]}},{"type":"Feature","properties":{"name":"安昌藥局","id":"5903160097","updateTime":"2022/05/06 15:57:32","stock":78,"label":"羅氏家用新冠病毒抗原自我檢測套組","address":"臺中市大肚區遊園路二段１７６號１樓","remark":"每天晚上19:00點開始現場排隊販賣快篩試劑.","phone":"(04)26913890"},"geometry":{"type":"Point","coordinates":[120.5808,24.17289]}},{"type":"Feature","properties":{"name":"龍井新庄藥局","id":"5903170048","updateTime":"2022/05/06 15:57:32","stock":19,"label":"羅氏家用新冠病毒抗原自我檢測套組","address":"臺中市龍井區遊園南路１７９號１樓","remark":"實名制快篩每日下午3點半開賣","phone":"(04)26322169"},"geometry":{"type":"Point","coordinates":[120.5843,24.18216]}},{"type":"Feature","properties":{"name":"永合藥局","id":"5903180115","updateTime":"2022/05/06 15:57:32","stock":55,"label":"羅氏家用新冠病毒抗原自我檢測套組","address":"臺中市霧峰區中正路９６５號","remark":"無","phone":"(04)23391910"},"geometry":{"type":"Point","coordinates":[120.6989,24.06597]}},{"type":"Feature","properties":{"name":"峰正藥局","id":"5903180142","updateTime":"2022/05/06 15:57:32","stock":78,"label":"羅氏家用新冠病毒抗原自我檢測套組","address":"臺中市霧峰區中正路８３０號１樓","remark":"快篩實名制，每天16:00開始販售，售完為止。","phone":"(04)23303353"},"geometry":{"type":"Point","coordinates":[120.6987,24.06244]}},{"type":"Feature","properties":{"name":"太平中山藥局","id":"5903190362","updateTime":"2022/05/06 15:57:32","stock":78,"label":"羅氏家用新冠病毒抗原自我檢測套組","address":"臺中市太平區中山路４段１１號","remark":"快篩實名制，每天16:00開始販售，售完為止。","phone":"(04)23959200"},"geometry":{"type":"Point","coordinates":[120.7139,24.14931]}},{"type":"Feature","properties":{"name":"德芳太平藥局","id":"5903190675","updateTime":"2022/05/06 15:57:32","stock":10,"label":"羅氏家用新冠病毒抗原自我檢測套組","address":"臺中市太平區中興路１３３巷１－１號１樓","remark":"快篩販售時間:下午3點~6點","phone":"(04)23511588"},"geometry":{"type":"Point","coordinates":[120.7146,24.12617]}},{"type":"Feature","properties":{"name":"信元藥局","id":"5903200229","updateTime":"2022/05/06 15:57:32","stock":49,"label":"羅氏家用新冠病毒抗原自我檢測套組","address":"臺中市大里區益民路２段３７２號１樓","remark":"下午5點發號碼牌並依序販賣","phone":"(04)24876051"},"geometry":{"type":"Point","coordinates":[120.684,24.11545]}},{"type":"Feature","properties":{"name":"佳霖藥局","id":"5903200443","updateTime":"2022/05/06 15:57:32","stock":19,"label":"羅氏家用新冠病毒抗原自我檢測套組","address":"臺中市大里區塗城路９６４號１樓","remark":"健保卡快篩:（周日和周三停賣）.請備好健保卡和500元整.下午3點半開賣.現場排隊／售完為止","phone":"(04)24960895"},"geometry":{"type":"Point","coordinates":[120.6933,24.09081]}},{"type":"Feature","properties":{"name":"大樹大里藥局","id":"5903200596","updateTime":"2022/05/06 15:57:32","stock":78,"label":"羅氏家用新冠病毒抗原自我檢測套組","address":"臺中市大里區中興路二段１０１號","remark":"快篩實名制，每天16:00開始販售，售完為止。","phone":"(04)24861133"},"geometry":{"type":"Point","coordinates":[120.6885,24.10305]}},{"type":"Feature","properties":{"name":"塗城藥局","id":"5903200685","updateTime":"2022/05/06 15:57:32","stock":78,"label":"羅氏家用新冠病毒抗原自我檢測套組","address":"臺中市大里區中興路一段１８７、１８９、１９１號１樓","remark":"快篩實名制，每天16:00開始販售，售完為止。","phone":"(04)24967234"},"geometry":{"type":"Point","coordinates":[120.6933,24.09008]}},{"type":"Feature","properties":{"name":"大益藥局","id":"5903200701","updateTime":"2022/05/06 15:57:32","stock":78,"label":"羅氏家用新冠病毒抗原自我檢測套組","address":"臺中市大里區益民路二段３３５號１、２樓","remark":"快篩實名制，每天16:00開始販售，售完為止。","phone":"(04)24811551"},"geometry":{"type":"Point","coordinates":[120.6837,24.11311]}},{"type":"Feature","properties":{"name":"宏信大藥局","id":"5903220061","updateTime":"2022/05/06 15:57:32","stock":1,"label":"羅氏家用新冠病毒抗原自我檢測套組","address":"臺中市中區自由路２段４５號１樓","remark":"周1~周5 早上9點至晚上7點周6周日早上10點到晚上9點","phone":"(04)22222021"},"geometry":{"type":"Point","coordinates":[120.6815,24.13959]}},{"type":"Feature","properties":{"name":"名華藥局","id":"5903240483","updateTime":"2022/05/06 15:57:32","stock":8,"label":"羅氏家用新冠病毒抗原自我檢測套組","address":"臺中市西區中華路一段７號１樓","remark":"實名制快篩，5／6 PM3:00開售","phone":"(04)22231187"},"geometry":{"type":"Point","coordinates":[120.6732,24.14209]}},{"type":"Feature","properties":{"name":"大樹美村藥局","id":"5903250381","updateTime":"2022/05/06 15:57:32","stock":78,"label":"羅氏家用新冠病毒抗原自我檢測套組","address":"臺中市南區美村南路１２４號","remark":"口罩販售時間：14:00 - 16:00","phone":"(04)22621113"},"geometry":{"type":"Point","coordinates":[120.667,24.11499]}},{"type":"Feature","properties":{"name":"心安藥局","id":"5903250505","updateTime":"2022/05/06 15:57:32","stock":96,"label":"羅氏家用新冠病毒抗原自我檢測套組","address":"臺中市南區國光路２４１號１樓","remark":"每天下午三點排隊開賣，一人一卡，週日公休下次是5／6號.5／5已售完.","phone":"(04)22858773"},"geometry":{"type":"Point","coordinates":[120.6794,24.12676]}},{"type":"Feature","properties":{"name":"立得藥局","id":"5903260734","updateTime":"2022/05/06 15:57:32","stock":1,"label":"羅氏家用新冠病毒抗原自我檢測套組","address":"臺中市北區忠太西路１１號１樓","remark":"固定周一到周六，早上9:00開始販賣防疫口罩","phone":"(04)22080013"},"geometry":{"type":"Point","coordinates":[120.6678,24.15997]}},{"type":"Feature","properties":{"name":"杏一北區文心藥局","id":"5903260814","updateTime":"2022/05/06 15:57:32","stock":78,"label":"羅氏家用新冠病毒抗原自我檢測套組","address":"臺中市北區文心路４段２１０－８號１、２樓","remark":"實名制快篩下午16:00開始販售","phone":"(04)22993847"},"geometry":{"type":"Point","coordinates":[120.678,24.1729]}},{"type":"Feature","properties":{"name":"森川健保藥局","id":"5903260985","updateTime":"2022/05/06 15:57:32","stock":8,"label":"羅氏家用新冠病毒抗原自我檢測套組","address":"臺中市北區五權路２５１號１樓","remark":"快篩試劑每日下午三點開賣，售完為止","phone":"(09)78157008"},"geometry":{"type":"Point","coordinates":[120.6764,24.15074]}},{"type":"Feature","properties":{"name":"台中大樹藥局","id":"5903261008","updateTime":"2022/05/06 15:57:32","stock":78,"label":"羅氏家用新冠病毒抗原自我檢測套組","address":"臺中市北區漢口路三段２６１號","remark":"快篩實名制，每天16:00開始販售，售完為止。","phone":"(04)22981113"},"geometry":{"type":"Point","coordinates":[120.6726,24.16703]}},{"type":"Feature","properties":{"name":"弘福藥師藥局","id":"5903270310","updateTime":"2022/05/06 15:57:32","stock":8,"label":"羅氏家用新冠病毒抗原自我檢測套組","address":"臺中市西屯區西屯路３段１６６－２１號１樓","remark":"每日15:00發放號碼牌，發完即開始販售（全年無休）","phone":"(04)24611916"},"geometry":{"type":"Point","coordinates":[120.6159,24.18918]}},{"type":"Feature","properties":{"name":"舒健藥局","id":"5903270721","updateTime":"2022/05/06 15:57:32","stock":78,"label":"羅氏家用新冠病毒抗原自我檢測套組","address":"臺中市西屯區西屯路二段２５５號２樓","remark":"公費快篩試劑於周一至周六晚上7點現場排隊購買，週日公休。","phone":"(04)27077858"},"geometry":{"type":"Point","coordinates":[120.6459,24.17179]}},{"type":"Feature","properties":{"name":"尚禾藥局","id":"5903270865","updateTime":"2022/05/06 15:57:32","stock":39,"label":"羅氏家用新冠病毒抗原自我檢測套組","address":"臺中市西屯區青海路一段６５號","remark":"實名制快篩發放：時段一中午12:30~14:00。時段二20：30~22：30。時段一若未發完，餘量將遞延至時段二發放。周日停售。","phone":"(04)23147688"},"geometry":{"type":"Point","coordinates":[120.6548,24.16438]}},{"type":"Feature","properties":{"name":"元生藥局","id":"5903270909","updateTime":"2022/05/06 15:57:32","stock":78,"label":"羅氏家用新冠病毒抗原自我檢測套組","address":"臺中市西屯區大墩路９６０號","remark":"快篩販售時段下午4點起","phone":"(04)23274539"},"geometry":{"type":"Point","coordinates":[120.6516,24.15817]}},{"type":"Feature","properties":{"name":"西屯藥局","id":"5903271022","updateTime":"2022/05/06 15:57:32","stock":78,"label":"羅氏家用新冠病毒抗原自我檢測套組","address":"臺中市西屯區西屯路三段１５０－４５號１樓","remark":"快篩實名制，每天16:00開始販售，售完為止。","phone":"(04)24621822"},"geometry":{"type":"Point","coordinates":[120.621,24.18716]}},{"type":"Feature","properties":{"name":"美十樂中科藥局","id":"5903271031","updateTime":"2022/05/06 15:57:32","stock":468,"label":"羅氏家用新冠病毒抗原自我檢測套組","address":"臺中市西屯區西屯路三段１６６－６５號１樓","remark":"醫事人員卡片損壞，暫時無法販賣快篩","phone":"(04)24610219"},"geometry":{"type":"Point","coordinates":[120.6129,24.19035]}},{"type":"Feature","properties":{"name":"西墩藥局","id":"5903271068","updateTime":"2022/05/06 15:57:32","stock":78,"label":"羅氏家用新冠病毒抗原自我檢測套組","address":"臺中市西屯區黎明路三段２７５、２７７號１樓","remark":"快篩實名制，每天16:00開始販售，售完為止。","phone":"(04)24510770"},"geometry":{"type":"Point","coordinates":[120.6373,24.17812]}},{"type":"Feature","properties":{"name":"何安藥局","id":"5903271193","updateTime":"2022/05/06 15:57:32","stock":78,"label":"羅氏家用新冠病毒抗原自我檢測套組","address":"臺中市西屯區西屯路二段１０１號Ｂ棟１樓","remark":"快篩實名制，每天16:00開始販售，售完為止。","phone":"(04)23161110"},"geometry":{"type":"Point","coordinates":[120.6531,24.16616]}},{"type":"Feature","properties":{"name":"柏醫藥局","id":"5903271246","updateTime":"2022/05/06 15:57:32","stock":78,"label":"羅氏家用新冠病毒抗原自我檢測套組","address":"臺中市西屯區上安路５６號１樓","remark":"因應到貨時間不定，統一晚上7點開放78組（5／6已到貨 14:43）","phone":"(04)24526391"},"geometry":{"type":"Point","coordinates":[120.6412,24.17052]}},{"type":"Feature","properties":{"name":"西屯長安藥局","id":"5903271291","updateTime":"2022/05/06 15:57:32","stock":78,"label":"羅氏家用新冠病毒抗原自我檢測套組","address":"臺中市西屯區成都路３６８號１樓","remark":"快篩實名制，每天16:00開始販售，售完為止。","phone":"(04)22981221"},"geometry":{"type":"Point","coordinates":[120.6641,24.17322]}},{"type":"Feature","properties":{"name":"大墩何藥局","id":"5903280245","updateTime":"2022/05/06 15:57:32","stock":78,"label":"羅氏家用新冠病毒抗原自我檢測套組","address":"臺中市南屯區大敦南路４３１號１．２樓","remark":"防疫用快篩試劑下午4點開始販售，售完為止","phone":"(04)24710655"},"geometry":{"type":"Point","coordinates":[120.6476,24.13497]}},{"type":"Feature","properties":{"name":"熊大心藥局","id":"5903280656","updateTime":"2022/05/06 15:57:32","stock":17,"label":"羅氏家用新冠病毒抗原自我檢測套組","address":"臺中市南屯區河南路四段３７６號","remark":"app庫存錯誤。周一至周六，15:00-16:00售實名制快篩","phone":"(04)22516252"},"geometry":{"type":"Point","coordinates":[120.6369,24.15208]}},{"type":"Feature","properties":{"name":"大樹南屯藥局","id":"5903280807","updateTime":"2022/05/06 15:57:32","stock":77,"label":"羅氏家用新冠病毒抗原自我檢測套組","address":"臺中市南屯區向上路一段６４３號１樓","remark":"快篩實名制，每天16:00開始販售，售完為止。","phone":"(04)24758887"},"geometry":{"type":"Point","coordinates":[120.6486,24.14659]}},{"type":"Feature","properties":{"name":"佳美藥局","id":"5903290518","updateTime":"2022/05/06 15:57:32","stock":29,"label":"羅氏家用新冠病毒抗原自我檢測套組","address":"臺中市北屯區東山路１段２６５號１樓","remark":"週日公休.下午4點現場販售","phone":"(04)24363658"},"geometry":{"type":"Point","coordinates":[120.7184,24.17583]}},{"type":"Feature","properties":{"name":"敦化小林健保藥局","id":"5903290607","updateTime":"2022/05/06 15:57:32","stock":2,"label":"羅氏家用新冠病毒抗原自我檢測套組","address":"臺中市北屯區敦化路１段６６８號","remark":"每日早上8:00領號碼牌，16:30再回藥局領口罩（全年無休）","phone":"(04)24261881"},"geometry":{"type":"Point","coordinates":[120.6643,24.18593]}},{"type":"Feature","properties":{"name":"北屯軍功藥局","id":"5903290876","updateTime":"2022/05/06 15:57:32","stock":78,"label":"羅氏家用新冠病毒抗原自我檢測套組","address":"臺中市北屯區軍功路一段７５２號","remark":"快篩實名制，每天16:00開始販售，售完為止。","phone":"(04)24375111"},"geometry":{"type":"Point","coordinates":[120.7193,24.17513]}},{"type":"Feature","properties":{"name":"豐禾藥局","id":"5903290894","updateTime":"2022/05/06 15:57:32","stock":78,"label":"羅氏家用新冠病毒抗原自我檢測套組","address":"臺中市北屯區同榮路１６３號","remark":"快篩試劑於每日下午5點販售，星期日停售","phone":"(04)24260588"},"geometry":{"type":"Point","coordinates":[120.6618,24.19589]}},{"type":"Feature","properties":{"name":"帥帥藥局","id":"5903290901","updateTime":"2022/05/06 15:57:32","stock":24,"label":"羅氏家用新冠病毒抗原自我檢測套組","address":"臺中市北屯區東山路一段３００－２號","remark":"星期一二晚上18:30-20:30，星期三至五下午15:00-17:00販賣快篩試劑，售完為止。六.日無販售。","phone":"(04)24378188"},"geometry":{"type":"Point","coordinates":[120.7204,24.1759]}},{"type":"Feature","properties":{"name":"崇德藥局","id":"5903290965","updateTime":"2022/05/06 15:57:32","stock":78,"label":"羅氏家用新冠病毒抗原自我檢測套組","address":"臺中市北屯區崇德路二段３１號","remark":"快篩實名制，每天16:00開始販售，售完為止。","phone":"(04)22361331"},"geometry":{"type":"Point","coordinates":[120.685,24.16962]}},{"type":"Feature","properties":{"name":"五和健保藥局","id":"5903291006","updateTime":"2022/05/06 15:57:32","stock":1,"label":"羅氏家用新冠病毒抗原自我檢測套組","address":"臺中市北屯區崇德路二段４６０號１樓","remark":"週六公休 。周一至周五 14:30 發號碼牌 14:40販售； 週日 8:30發號碼牌 隨後販售","phone":"(04)22415533"},"geometry":{"type":"Point","coordinates":[120.6863,24.18001]}},{"type":"Feature","properties":{"name":"大樹北屯藥局","id":"5903291060","updateTime":"2022/05/06 15:57:32","stock":78,"label":"羅氏家用新冠病毒抗原自我檢測套組","address":"臺中市北屯區松竹路二段４１１號１樓","remark":"快篩實名制，每天16:00開始販售，售完為止。","phone":"(04)22422262"},"geometry":{"type":"Point","coordinates":[120.6895,24.18192]}},{"type":"Feature","properties":{"name":"興安藥局","id":"5903291140","updateTime":"2022/05/06 15:57:32","stock":78,"label":"羅氏家用新冠病毒抗原自我檢測套組","address":"臺中市北屯區興安路二段５２號１、２樓","remark":"快篩實名制，每天16:00開始販售，售完為止。","phone":"(04)22460369"},"geometry":{"type":"Point","coordinates":[120.6949,24.1762]}},{"type":"Feature","properties":{"name":"日初藥局","id":"5903291168","updateTime":"2022/05/06 15:57:32","stock":63,"label":"羅氏家用新冠病毒抗原自我檢測套組","address":"臺中市北屯區軍功路一段４８２－３號１樓","remark":"無","phone":"(04)24363150"},"geometry":{"type":"Point","coordinates":[120.7188,24.17102]}},{"type":"Feature","properties":{"name":"大連何藥局","id":"5903291177","updateTime":"2022/05/06 15:57:32","stock":78,"label":"羅氏家用新冠病毒抗原自我檢測套組","address":"臺中市北屯區山西路二段２７４號１樓","remark":"因應配送時間不一，販賣時間改為下午四點。","phone":"(04)22930895"},"geometry":{"type":"Point","coordinates":[120.677,24.177]}},{"type":"Feature","properties":{"name":"新一代何藥局","id":"5903291257","updateTime":"2022/05/06 15:57:32","stock":67,"label":"羅氏家用新冠病毒抗原自我檢測套組","address":"臺中市北屯區環中東路二段２６６、２６８號１樓","remark":"因應配送時間不一 ，販賣時間改為下午四點","phone":"(04)24364366"},"geometry":{"type":"Point","coordinates":[120.7207,24.17576]}},{"type":"Feature","properties":{"name":"長壽藥局","id":"5905010072","updateTime":"2022/05/06 15:57:32","stock":76,"label":"羅氏家用新冠病毒抗原自我檢測套組","address":"臺南市新營區中山路２１９號","remark":"口罩販售時間：8:00~售完","phone":"(06)6324001"},"geometry":{"type":"Point","coordinates":[120.3146,23.30286]}},{"type":"Feature","properties":{"name":"啄木鳥藥師藥局","id":"5905010143","updateTime":"2022/05/06 15:57:32","stock":77,"label":"羅氏家用新冠病毒抗原自我檢測套組","address":"臺南市新營區新南里民治路２４２號","remark":"每天下午4:00開始販售，售完為止","phone":"(06)6590248"},"geometry":{"type":"Point","coordinates":[120.3041,23.30767]}},{"type":"Feature","properties":{"name":"大樹新營藥局","id":"5905010250","updateTime":"2022/05/06 15:57:32","stock":78,"label":"羅氏家用新冠病毒抗原自我檢測套組","address":"臺南市新營區民權路７４、７６、７８號１樓","remark":"快篩實名制，每天16:00開始販售，售完為止。","phone":"(06)6328300"},"geometry":{"type":"Point","coordinates":[120.3127,23.30615]}},{"type":"Feature","properties":{"name":"大樹鹽水藥局","id":"5905020023","updateTime":"2022/05/06 15:57:32","stock":78,"label":"羅氏家用新冠病毒抗原自我檢測套組","address":"臺南市鹽水區朝琴路１２６－３號１樓","remark":"快篩實名制，每天16:00開始販售，售完為止。","phone":"(06)6520432"},"geometry":{"type":"Point","coordinates":[120.271,23.32228]}},{"type":"Feature","properties":{"name":"大樹白河藥局","id":"5905030092","updateTime":"2022/05/06 15:57:32","stock":78,"label":"羅氏家用新冠病毒抗原自我檢測套組","address":"臺南市白河區中山路１５３號１樓","remark":"快篩實名制，每天16:00開始販售，售完為止。","phone":"(06)6830006"},"geometry":{"type":"Point","coordinates":[120.417,23.35255]}},{"type":"Feature","properties":{"name":"大樹麻豆藥局","id":"5905040141","updateTime":"2022/05/06 15:57:32","stock":78,"label":"羅氏家用新冠病毒抗原自我檢測套組","address":"臺南市麻豆區中山路４８、５０號１樓","remark":"快篩實名制，每天16:00開始販售，售完為止。","phone":"(06)5716556"},"geometry":{"type":"Point","coordinates":[120.2469,23.18382]}},{"type":"Feature","properties":{"name":"大樹佳里藥局","id":"5905050209","updateTime":"2022/05/06 15:57:32","stock":78,"label":"羅氏家用新冠病毒抗原自我檢測套組","address":"臺南市佳里區延平路２３７號１樓","remark":"快篩實名制，每天16:00開始販售，售完為止。","phone":"(06)7231323"},"geometry":{"type":"Point","coordinates":[120.1783,23.1599]}},{"type":"Feature","properties":{"name":"大樹新化藥局","id":"5905060198","updateTime":"2022/05/06 15:57:32","stock":78,"label":"羅氏家用新冠病毒抗原自我檢測套組","address":"臺南市新化區中正路５３１號１樓","remark":"快篩實名制，每天16:00開始販售，售完為止。","phone":"(06)5901331"},"geometry":{"type":"Point","coordinates":[120.3072,23.03764]}},{"type":"Feature","properties":{"name":"大樹善化藥局","id":"5905070121","updateTime":"2022/05/06 15:57:32","stock":78,"label":"羅氏家用新冠病毒抗原自我檢測套組","address":"臺南市善化區民權路５４、５６、５８號１樓","remark":"快篩實名制，每天16:00開始販售，售完為止。","phone":"(06)5830550"},"geometry":{"type":"Point","coordinates":[120.3034,23.1322]}},{"type":"Feature","properties":{"name":"善化啄木鳥藥局","id":"5905070201","updateTime":"2022/05/06 15:57:32","stock":23,"label":"羅氏家用新冠病毒抗原自我檢測套組","address":"臺南市善化區中山路１８１號１、２樓","remark":"快篩實名制，15:30-售完","phone":"(06)5853585"},"geometry":{"type":"Point","coordinates":[120.3006,23.13256]}},{"type":"Feature","properties":{"name":"大樹學甲藥局","id":"5905080056","updateTime":"2022/05/06 15:57:32","stock":78,"label":"羅氏家用新冠病毒抗原自我檢測套組","address":"臺南市學甲區中正路１３５號１樓","remark":"快篩實名制，每天16:00開始販售，售完為止。","phone":"(06)7820001"},"geometry":{"type":"Point","coordinates":[120.1793,23.23029]}},{"type":"Feature","properties":{"name":"欣和德藥局","id":"5905200058","updateTime":"2022/05/06 15:57:32","stock":1,"label":"羅氏家用新冠病毒抗原自我檢測套組","address":"臺南市新市區中正路２００號","remark":"快篩實名制每日14:15發號碼牌；14:30開始販售，售完為止","phone":"(06)5895658"},"geometry":{"type":"Point","coordinates":[120.2916,23.07516]}},{"type":"Feature","properties":{"name":"大樹新市藥局","id":"5905200085","updateTime":"2022/05/06 15:57:32","stock":78,"label":"羅氏家用新冠病毒抗原自我檢測套組","address":"臺南市新市區中正路４９、５１號１樓","remark":"快篩實名制，每天16:00開始販售，售完為止。","phone":"(06)5892552"},"geometry":{"type":"Point","coordinates":[120.2916,23.07223]}},{"type":"Feature","properties":{"name":"大樹仁德藥局","id":"5905270176","updateTime":"2022/05/06 15:57:32","stock":78,"label":"羅氏家用新冠病毒抗原自我檢測套組","address":"臺南市仁德區中正路二段１１５２號１樓","remark":"快篩實名制，每天16:00開始販售，售完為止。","phone":"(06)2797466"},"geometry":{"type":"Point","coordinates":[120.2519,22.97062]}},{"type":"Feature","properties":{"name":"大樹青青藥局","id":"5905280109","updateTime":"2022/05/06 15:57:32","stock":78,"label":"羅氏家用新冠病毒抗原自我檢測套組","address":"臺南市歸仁區中山路三段１２號","remark":"快篩實名制，每天16:00開始販售，售完為止。","phone":"(06)2300301"},"geometry":{"type":"Point","coordinates":[120.2875,22.96765]}},{"type":"Feature","properties":{"name":"歸仁丁丁藥局","id":"5905280163","updateTime":"2022/05/06 15:57:32","stock":33,"label":"羅氏家用新冠病毒抗原自我檢測套組","address":"臺南市歸仁區中山路三段７３號１樓","remark":"快篩實名制「每天早上9點發放號碼牌」開始販售，如未到貨可關注丁丁藥局歸仁店FB，到貨通知（憑號碼牌購買）","phone":"(06)2300767"},"geometry":{"type":"Point","coordinates":[120.2861,22.96753]}},{"type":"Feature","properties":{"name":"大樹關廟藥局","id":"5905290034","updateTime":"2022/05/06 15:57:32","stock":78,"label":"羅氏家用新冠病毒抗原自我檢測套組","address":"臺南市關廟區中央路２６３號１樓","remark":"快篩實名制，每天16:00開始販售，售完為止。","phone":"(06)5965889"},"geometry":{"type":"Point","coordinates":[120.3272,22.96109]}},{"type":"Feature","properties":{"name":"中華長億藥局","id":"5905311074","updateTime":"2022/05/06 15:57:32","stock":78,"label":"羅氏家用新冠病毒抗原自我檢測套組","address":"臺南市永康區中華路７３４、７３６號１樓","remark":"快篩實名制，每天16:00開始販售，售完為止。","phone":"(06)3022322"},"geometry":{"type":"Point","coordinates":[120.2288,23.0167]}},{"type":"Feature","properties":{"name":"台南永康藥局","id":"5905311127","updateTime":"2022/05/06 15:57:32","stock":78,"label":"羅氏家用新冠病毒抗原自我檢測套組","address":"臺南市永康區中山南路８１６、８１６─１、２、３號１樓","remark":"快篩實名制，每天16:00開始販售，售完為止。","phone":"(06)2020201"},"geometry":{"type":"Point","coordinates":[120.2471,23.02099]}},{"type":"Feature","properties":{"name":"佑全中華藥局","id":"5905320466","updateTime":"2022/05/06 15:57:32","stock":1,"label":"羅氏家用新冠病毒抗原自我檢測套組","address":"臺南市東區中華東路三段２１５號","remark":"星期一-六08:00-21:00","phone":"(06)2906386"},"geometry":{"type":"Point","coordinates":[120.2253,22.97603]}},{"type":"Feature","properties":{"name":"杏一台南崇德藥局","id":"5905320564","updateTime":"2022/05/06 15:57:32","stock":1,"label":"羅氏家用新冠病毒抗原自我檢測套組","address":"臺南市東區崇德路６７４號","remark":"健保快篩發送時間:周一至周日:下午:15:00","phone":"(06)2671939"},"geometry":{"type":"Point","coordinates":[120.2274,22.96762]}},{"type":"Feature","properties":{"name":"大樹自由藥局","id":"5905320797","updateTime":"2022/05/06 15:57:32","stock":30,"label":"羅氏家用新冠病毒抗原自我檢測套組","address":"臺南市東區自由路三段３８２號１樓","remark":"快篩實名制，每天16:00開始販售，售完為止。","phone":"(06)2890800"},"geometry":{"type":"Point","coordinates":[120.2373,22.98241]}},{"type":"Feature","properties":{"name":"大樹大同藥局","id":"5905320804","updateTime":"2022/05/06 15:57:32","stock":78,"label":"羅氏家用新冠病毒抗原自我檢測套組","address":"臺南市東區大同路二段２２７、２２９號１樓","remark":"快篩實名制，每天16:00開始販售，售完為止。","phone":"(06)2158700"},"geometry":{"type":"Point","coordinates":[120.2143,22.97567]}},{"type":"Feature","properties":{"name":"大樹東寧藥局","id":"5905320868","updateTime":"2022/05/06 15:57:32","stock":78,"label":"羅氏家用新冠病毒抗原自我檢測套組","address":"臺南市東區東寧路４３６號１樓","remark":"快篩實名制，每天16:00開始販售，售完為止。","phone":"(06)2360006"},"geometry":{"type":"Point","coordinates":[120.2291,22.9895]}},{"type":"Feature","properties":{"name":"大樹崇道藥局","id":"5905320911","updateTime":"2022/05/06 15:57:32","stock":78,"label":"羅氏家用新冠病毒抗原自我檢測套組","address":"臺南市東區崇道路６３號１樓","remark":"快篩實名制，每天16:00開始販售，售完為止。","phone":"(06)2680456"},"geometry":{"type":"Point","coordinates":[120.2272,22.97227]}},{"type":"Feature","properties":{"name":"宏祐健保藥局","id":"5905330239","updateTime":"2022/05/06 15:57:32","stock":33,"label":"羅氏家用新冠病毒抗原自我檢測套組","address":"臺南市南區新孝路５９號","remark":"快篩下午4點開賣","phone":"(06)2632580"},"geometry":{"type":"Point","coordinates":[120.1893,22.97767]}},{"type":"Feature","properties":{"name":"大樹佳華藥局","id":"5905330284","updateTime":"2022/05/06 15:57:32","stock":78,"label":"羅氏家用新冠病毒抗原自我檢測套組","address":"臺南市南區金華路二段１２９號１樓","remark":"快篩實名制，每天16:00開始販售，售完為止。","phone":"(06)2641238"},"geometry":{"type":"Point","coordinates":[120.1911,22.98035]}},{"type":"Feature","properties":{"name":"千多藥局","id":"5905350366","updateTime":"2022/05/06 15:57:32","stock":78,"label":"羅氏家用新冠病毒抗原自我檢測套組","address":"臺南市北區金華路五段１號","remark":"晚上6點開始銷售實名制快篩試劑，賣完為止","phone":"(06)2228641"},"geometry":{"type":"Point","coordinates":[120.1962,23.0016]}},{"type":"Feature","properties":{"name":"大樹安南藥局","id":"5905370304","updateTime":"2022/05/06 15:57:32","stock":78,"label":"羅氏家用新冠病毒抗原自我檢測套組","address":"臺南市安南區安和路四段５５７號１樓","remark":"快篩實名制，每天16:00開始販售，售完為止。","phone":"(06)3563370"},"geometry":{"type":"Point","coordinates":[120.2185,23.06181]}},{"type":"Feature","properties":{"name":"宜康安和藥局","id":"5905370448","updateTime":"2022/05/06 15:57:32","stock":8,"label":"羅氏家用新冠病毒抗原自我檢測套組","address":"臺南市安南區安和路一段６８號１樓","remark":"實名制快篩:16:00~17:00販售","phone":"(06)2521250"},"geometry":{"type":"Point","coordinates":[120.2151,23.0273]}},{"type":"Feature","properties":{"name":"人人好藥局","id":"5907010187","updateTime":"2022/05/06 15:57:32","stock":202,"label":"羅氏家用新冠病毒抗原自我檢測套組","address":"高雄市鳳山區五甲三路１０巷７號１樓","remark":"上午0830-1330下午1530-2100， 自2／11-2／29口罩販售周一三四五日，時間:9:00-12:00售完為止","phone":"(07)8151566"},"geometry":{"type":"Point","coordinates":[120.3278,22.59336]}},{"type":"Feature","properties":{"name":"科健藥局","id":"5907010365","updateTime":"2022/05/06 15:57:32","stock":28,"label":"羅氏家用新冠病毒抗原自我檢測套組","address":"高雄市鳳山區八德路２４６－５號１樓","remark":"下午3:30開始換購","phone":"(07)7777868"},"geometry":{"type":"Point","coordinates":[120.3568,22.63853]}},{"type":"Feature","properties":{"name":"長青連鎖藥局光遠店","id":"5907010525","updateTime":"2022/05/06 15:57:32","stock":78,"label":"羅氏家用新冠病毒抗原自我檢測套組","address":"高雄市鳳山區光遠路２７１號１樓","remark":"實名制快篩下午4點開始販售","phone":"(07)7103487"},"geometry":{"type":"Point","coordinates":[120.3588,22.62596]}},{"type":"Feature","properties":{"name":"鳳山五甲藥局","id":"5907011095","updateTime":"2022/05/06 15:57:32","stock":78,"label":"羅氏家用新冠病毒抗原自我檢測套組","address":"高雄市鳳山區正義里五甲二路１３９號１樓","remark":"快篩實名制，每天16:00開始販售，售完為止。","phone":"(07)7269899"},"geometry":{"type":"Point","coordinates":[120.3409,22.6014]}},{"type":"Feature","properties":{"name":"大樹國泰藥局","id":"5907011148","updateTime":"2022/05/06 15:57:32","stock":78,"label":"羅氏家用新冠病毒抗原自我檢測套組","address":"高雄市鳳山區興仁里五甲一路２９２號","remark":"快篩實名制，每天16:00開始販售，售完為止。","phone":"(07)7407234"},"geometry":{"type":"Point","coordinates":[120.3539,22.61698]}},{"type":"Feature","properties":{"name":"鳳西藥局","id":"5907011175","updateTime":"2022/05/06 15:57:32","stock":78,"label":"羅氏家用新冠病毒抗原自我檢測套組","address":"高雄市鳳山區忠義里中山西路２３８號１樓","remark":"快篩實名制，每天16:00開始販售，售完為止。","phone":"(07)7902717"},"geometry":{"type":"Point","coordinates":[120.3471,22.62831]}},{"type":"Feature","properties":{"name":"鳳山青年藥局","id":"5907011228","updateTime":"2022/05/06 15:57:32","stock":77,"label":"羅氏家用新冠病毒抗原自我檢測套組","address":"高雄市鳳山區文德里青年路二段３９９號１樓","remark":"口罩販售時間：14:00 - 16:00","phone":"(07)7678383"},"geometry":{"type":"Point","coordinates":[120.3513,22.64292]}},{"type":"Feature","properties":{"name":"大樹五甲藥局","id":"5907011371","updateTime":"2022/05/06 15:57:32","stock":78,"label":"羅氏家用新冠病毒抗原自我檢測套組","address":"高雄市鳳山區福祥里五甲三路２４號１－２樓．２６號１－２樓","remark":"快篩實名制，每天16:00開始販售，售完為止。","phone":"(07)8224926"},"geometry":{"type":"Point","coordinates":[120.3278,22.59317]}},{"type":"Feature","properties":{"name":"大德藥局","id":"5907020085","updateTime":"2022/05/06 15:57:32","stock":78,"label":"羅氏家用新冠病毒抗原自我檢測套組","address":"高雄市岡山區大德一路９８號","remark":"快篩實名制，每天16:00開始販售，售完為止。","phone":"(07)6221456"},"geometry":{"type":"Point","coordinates":[120.3025,22.79689]}},{"type":"Feature","properties":{"name":"大樹岡山藥局","id":"5907020094","updateTime":"2022/05/06 15:57:32","stock":78,"label":"羅氏家用新冠病毒抗原自我檢測套組","address":"高雄市岡山區岡山路１３６號","remark":"快篩實名制，每天16:00開始販售，售完為止。","phone":"(07)6219477"},"geometry":{"type":"Point","coordinates":[120.2967,22.78913]}},{"type":"Feature","properties":{"name":"睛好活力藥局","id":"5907030090","updateTime":"2022/05/06 15:57:32","stock":1,"label":"羅氏家用新冠病毒抗原自我檢測套組","address":"高雄市旗山區湄洲里中山路１２７號","remark":"無","phone":"(07)6625119"},"geometry":{"type":"Point","coordinates":[120.482,22.88873]}},{"type":"Feature","properties":{"name":"旗山藥局","id":"5907030152","updateTime":"2022/05/06 15:57:32","stock":78,"label":"羅氏家用新冠病毒抗原自我檢測套組","address":"高雄市旗山區中華路２３號","remark":"快篩實名制，每天16:00開始販售，售完為止。","phone":"(07)6621158"},"geometry":{"type":"Point","coordinates":[120.4841,22.88027]}},{"type":"Feature","properties":{"name":"林園藥局","id":"5907050109","updateTime":"2022/05/06 15:57:32","stock":78,"label":"羅氏家用新冠病毒抗原自我檢測套組","address":"高雄市林園區仁愛路１３號１樓","remark":"快篩實名制，每天16:00開始販售，售完為止。","phone":"(07)6425855"},"geometry":{"type":"Point","coordinates":[120.3928,22.50418]}},{"type":"Feature","properties":{"name":"華思中西藥局","id":"5907060230","updateTime":"2022/05/06 15:57:32","stock":78,"label":"羅氏家用新冠病毒抗原自我檢測套組","address":"高雄市大寮區永芳里進學路１２２號１樓","remark":"星期一~星期六 下午四點販售實名制快篩到售完為止   星期天店休","phone":"(07)7835567"},"geometry":{"type":"Point","coordinates":[120.3933,22.60468]}},{"type":"Feature","properties":{"name":"久堂藥局","id":"5907070030","updateTime":"2022/05/06 15:57:32","stock":78,"label":"羅氏家用新冠病毒抗原自我檢測套組","address":"高雄市大樹區久堂里久堂路１３６號１樓","remark":"快篩實名制，每天16:00開始販售，售完為止。","phone":"(07)6512800"},"geometry":{"type":"Point","coordinates":[120.4178,22.65813]}},{"type":"Feature","properties":{"name":"大樹仁武藥局","id":"5907080232","updateTime":"2022/05/06 15:57:32","stock":78,"label":"羅氏家用新冠病毒抗原自我檢測套組","address":"高雄市仁武區赤山里仁雄路８０－９號","remark":"快篩實名制，每天16:00開始販售，售完為止。","phone":"(07)3744777"},"geometry":{"type":"Point","coordinates":[120.3469,22.67811]}},{"type":"Feature","properties":{"name":"文武藥局","id":"5907080330","updateTime":"2022/05/06 15:57:32","stock":78,"label":"羅氏家用新冠病毒抗原自我檢測套組","address":"高雄市仁武區文武里中華路３５３號","remark":"快篩實名制，每天16:00開始販售，售完為止。","phone":"(07)3733551"},"geometry":{"type":"Point","coordinates":[120.3535,22.7011]}},{"type":"Feature","properties":{"name":"大樹大社藥局","id":"5907090167","updateTime":"2022/05/06 15:57:32","stock":78,"label":"羅氏家用新冠病毒抗原自我檢測套組","address":"高雄市大社區中山路３０８號１樓","remark":"快篩實名制，每天16:00開始販售，售完為止。","phone":"(07)3531682"},"geometry":{"type":"Point","coordinates":[120.3503,22.73145]}},{"type":"Feature","properties":{"name":"大樹大立藥局","id":"5907150257","updateTime":"2022/05/06 15:57:32","stock":78,"label":"羅氏家用新冠病毒抗原自我檢測套組","address":"高雄市路竹區國昌路５１號","remark":"快篩實名制，每天16:00開始販售，售完為止。","phone":"(07)6961663"},"geometry":{"type":"Point","coordinates":[120.26,22.85409]}},{"type":"Feature","properties":{"name":"保生藥局","id":"5907160093","updateTime":"2022/05/06 15:57:32","stock":79,"label":"羅氏家用新冠病毒抗原自我檢測套組","address":"高雄市湖內區葉厝里保生路３４０．３４２號","remark":"快篩實名制，每天16:00開始販售，售完為止。","phone":"(07)6990800"},"geometry":{"type":"Point","coordinates":[120.2195,22.90733]}},{"type":"Feature","properties":{"name":"七賢藥局","id":"5907280036","updateTime":"2022/05/06 15:57:32","stock":78,"label":"羅氏家用新冠病毒抗原自我檢測套組","address":"高雄市鹽埕區七賢三路１６２號１樓","remark":"快篩實名制，每天16:00開始販售，售完為止。","phone":"(07)5330616"},"geometry":{"type":"Point","coordinates":[120.2829,22.62712]}},{"type":"Feature","properties":{"name":"新高橋藥局華榮店","id":"5907290112","updateTime":"2022/05/06 15:57:32","stock":3,"label":"羅氏家用新冠病毒抗原自我檢測套組","address":"高雄市鼓山區華榮路２８７號１樓","remark":"下午2:30開始販售口罩","phone":"(07)5534727"},"geometry":{"type":"Point","coordinates":[120.2967,22.66616]}},{"type":"Feature","properties":{"name":"鼓山藥局","id":"5907290309","updateTime":"2022/05/06 15:57:32","stock":78,"label":"羅氏家用新冠病毒抗原自我檢測套組","address":"高雄市鼓山區華榮路１０號","remark":"快篩實名制，每天16:00開始販售，售完為止。","phone":"(07)5520017"},"geometry":{"type":"Point","coordinates":[120.2973,22.66156]}},{"type":"Feature","properties":{"name":"金元藥局","id":"5907300168","updateTime":"2022/05/06 15:57:32","stock":1,"label":"羅氏家用新冠病毒抗原自我檢測套組","address":"高雄市左營區重愛路２２０號","remark":"快篩試劑郵差配送，約10點至11點左右會送到藥局，即開始販售，星期四，六營業時間至中午12點","phone":"(07)3458378"},"geometry":{"type":"Point","coordinates":[120.3156,22.68562]}},{"type":"Feature","properties":{"name":"大樹孟子藥局","id":"5907300631","updateTime":"2022/05/06 15:57:32","stock":78,"label":"羅氏家用新冠病毒抗原自我檢測套組","address":"高雄市左營區孟子路２２６、２２８號","remark":"快篩實名制，每天16:00開始販售，售完為止。","phone":"(07)3461772"},"geometry":{"type":"Point","coordinates":[120.3112,22.67415]}},{"type":"Feature","properties":{"name":"高鐵藥局","id":"5907300926","updateTime":"2022/05/06 15:57:32","stock":78,"label":"羅氏家用新冠病毒抗原自我檢測套組","address":"高雄市左營區華夏路１３２２．１３２６號","remark":"快篩實名制，每天16:00開始販售，售完為止。","phone":"(07)3452797"},"geometry":{"type":"Point","coordinates":[120.312,22.68587]}},{"type":"Feature","properties":{"name":"左營藥局","id":"5907300944","updateTime":"2022/05/06 15:57:32","stock":78,"label":"羅氏家用新冠病毒抗原自我檢測套組","address":"高雄市左營區華夏路３２５號","remark":"快篩實名制，每天16:00開始販售，售完為止。","phone":"(07)5501017"},"geometry":{"type":"Point","coordinates":[120.2972,22.67167]}},{"type":"Feature","properties":{"name":"大路藥局","id":"5907300980","updateTime":"2022/05/06 15:57:32","stock":78,"label":"羅氏家用新冠病毒抗原自我檢測套組","address":"高雄市左營區左營大路５５－２號１樓","remark":"快篩實名制，每天16:00開始販售，售完為止。","phone":"(07)5851001"},"geometry":{"type":"Point","coordinates":[120.2877,22.6813]}},{"type":"Feature","properties":{"name":"杏一左營自由藥局","id":"5907301021","updateTime":"2022/05/06 15:57:32","stock":17,"label":"羅氏家用新冠病毒抗原自我檢測套組","address":"高雄市左營區自由二路３９７號","remark":"周一-周六販賣時間:15點；週日無提供快篩實聯制服務","phone":"(07)5509511"},"geometry":{"type":"Point","coordinates":[120.3084,22.66541]}},{"type":"Feature","properties":{"name":"新高橋藥局裕誠店","id":"5907301049","updateTime":"2022/05/06 15:57:32","stock":1,"label":"羅氏家用新冠病毒抗原自我檢測套組","address":"高雄市左營區裕誠路２９１號１樓","remark":"無","phone":"(07)5573857"},"geometry":{"type":"Point","coordinates":[120.3078,22.66511]}},{"type":"Feature","properties":{"name":"大樹楠梓藥局","id":"5907310262","updateTime":"2022/05/06 15:57:32","stock":78,"label":"羅氏家用新冠病毒抗原自我檢測套組","address":"高雄市楠梓區軍校路９０８號","remark":"快篩實名制，每天16:00開始販售，售完為止。","phone":"(07)3632322"},"geometry":{"type":"Point","coordinates":[120.2919,22.71246]}},{"type":"Feature","properties":{"name":"藍田藥局","id":"5907310404","updateTime":"2022/05/06 15:57:32","stock":78,"label":"羅氏家用新冠病毒抗原自我檢測套組","address":"高雄市楠梓區藍田路１號","remark":"快篩實名制，每天16:00開始販售，售完為止。","phone":"(07)3601236"},"geometry":{"type":"Point","coordinates":[120.2953,22.72643]}},{"type":"Feature","properties":{"name":"大樹天祥藥局","id":"5907320893","updateTime":"2022/05/06 15:57:32","stock":78,"label":"羅氏家用新冠病毒抗原自我檢測套組","address":"高雄市三民區天祥一路１６７號","remark":"快篩實名制，每天16:00開始販售，售完為止。","phone":"(07)3429902"},"geometry":{"type":"Point","coordinates":[120.3191,22.66737]}},{"type":"Feature","properties":{"name":"大昌藥局","id":"5907320900","updateTime":"2022/05/06 15:57:32","stock":78,"label":"羅氏家用新冠病毒抗原自我檢測套組","address":"高雄市三民區大昌二路３９７號","remark":"快篩實名制，每天16:00開始販售，售完為止。","phone":"(07)3961396"},"geometry":{"type":"Point","coordinates":[120.3317,22.64915]}},{"type":"Feature","properties":{"name":"桂林活力藥局九如店","id":"5907321069","updateTime":"2022/05/06 15:57:32","stock":32,"label":"羅氏家用新冠病毒抗原自我檢測套組","address":"高雄市三民區懷安街１１２號１樓","remark":"每天15:30發號碼牌，於18:00前兌換完畢，逾期棄權，剩餘則繼續發放","phone":"(07)3981009"},"geometry":{"type":"Point","coordinates":[120.3176,22.64095]}},{"type":"Feature","properties":{"name":"自由藥局","id":"5907321103","updateTime":"2022/05/06 15:57:32","stock":78,"label":"羅氏家用新冠病毒抗原自我檢測套組","address":"高雄市三民區自由一路７８號","remark":"快篩實名制，每天16:00開始販售，售完為止。","phone":"(07)3223113"},"geometry":{"type":"Point","coordinates":[120.3089,22.64422]}},{"type":"Feature","properties":{"name":"新興復興藥局","id":"5907330200","updateTime":"2022/05/06 15:57:32","stock":78,"label":"羅氏家用新冠病毒抗原自我檢測套組","address":"高雄市新興區復興一路７６號１樓","remark":"快篩實名制，每天16:00開始販售，售完為止。","phone":"(07)2352550"},"geometry":{"type":"Point","coordinates":[120.3085,22.63312]}},{"type":"Feature","properties":{"name":"英祥藥局","id":"5907350113","updateTime":"2022/05/06 15:57:32","stock":1,"label":"羅氏家用新冠病毒抗原自我檢測套組","address":"高雄市苓雅區英祥街１９號","remark":"無","phone":"(07)7522786"},"geometry":{"type":"Point","coordinates":[120.3257,22.61678]}},{"type":"Feature","properties":{"name":"佳康藥局","id":"5907350177","updateTime":"2022/05/06 15:57:32","stock":1,"label":"羅氏家用新冠病毒抗原自我檢測套組","address":"高雄市苓雅區建國一路３３４號","remark":"快篩代售時間:一至四8:30-21:00、五六8:30-16:30","phone":"(07)2266685"},"geometry":{"type":"Point","coordinates":[120.3247,22.63293]}},{"type":"Feature","properties":{"name":"武廟幸福藥局","id":"5907350346","updateTime":"2022/05/06 15:57:32","stock":2,"label":"羅氏家用新冠病毒抗原自我檢測套組","address":"高雄市苓雅區武廟路３５號","remark":"1: 自111／5／1起：快篩販售時間為13:40開始。2: 販售方式依現場公告為主，售完為止。","phone":"(07)7170085"},"geometry":{"type":"Point","coordinates":[120.3316,22.62999]}},{"type":"Feature","properties":{"name":"大樹苓雅藥局","id":"5907350506","updateTime":"2022/05/06 15:57:32","stock":78,"label":"羅氏家用新冠病毒抗原自我檢測套組","address":"高雄市苓雅區中華四路１５３號","remark":"快篩實名制，每天16:00開始販售，售完為止。","phone":"(07)5353111"},"geometry":{"type":"Point","coordinates":[120.3001,22.61783]}},{"type":"Feature","properties":{"name":"大樹武廟藥局","id":"5907350551","updateTime":"2022/05/06 15:57:32","stock":78,"label":"羅氏家用新冠病毒抗原自我檢測套組","address":"高雄市苓雅區武廟路４３、４５號１樓","remark":"快篩實名制，每天16:00開始販售，售完為止。","phone":"(07)7222268"},"geometry":{"type":"Point","coordinates":[120.3314,22.63005]}},{"type":"Feature","properties":{"name":"三多藥局","id":"5907350631","updateTime":"2022/05/06 15:57:32","stock":78,"label":"羅氏家用新冠病毒抗原自我檢測套組","address":"高雄市苓雅區三多二路２９２號１樓","remark":"快篩實名制，每天16:00開始販售，售完為止。","phone":"(07)3365889"},"geometry":{"type":"Point","coordinates":[120.3173,22.61838]}},{"type":"Feature","properties":{"name":"北京藥局林泉店","id":"5907350659","updateTime":"2022/05/06 15:57:32","stock":279,"label":"羅氏家用新冠病毒抗原自我檢測套組","address":"高雄市苓雅區林泉里３鄰林泉街３５號１樓","remark":"營業時間早上8點到下午11點，快篩下午3點30分開始販售","phone":"(07)7263030"},"geometry":{"type":"Point","coordinates":[120.3192,22.62323]}},{"type":"Feature","properties":{"name":"益源藥局","id":"5907360413","updateTime":"2022/05/06 15:57:32","stock":44,"label":"羅氏家用新冠病毒抗原自我檢測套組","address":"高雄市前鎮區草衙二路４１８號","remark":"無","phone":"(07)8412120"},"geometry":{"type":"Point","coordinates":[120.3226,22.57903]}},{"type":"Feature","properties":{"name":"聖名健保藥局","id":"5907360584","updateTime":"2022/05/06 15:57:32","stock":1,"label":"羅氏家用新冠病毒抗原自我檢測套組","address":"高雄市前鎮區復興三路２４６號１樓","remark":"無","phone":"(07)3319431"},"geometry":{"type":"Point","coordinates":[120.312,22.61558]}},{"type":"Feature","properties":{"name":"忠純藥局","id":"5907360664","updateTime":"2022/05/06 15:57:32","stock":78,"label":"羅氏家用新冠病毒抗原自我檢測套組","address":"高雄市前鎮區中華五路１００９號１樓","remark":"快篩實名制，每天16:00開始販售，售完為止。","phone":"(07)3366886"},"geometry":{"type":"Point","coordinates":[120.3056,22.60341]}},{"type":"Feature","properties":{"name":"前鎮大樹藥局","id":"5907360673","updateTime":"2022/05/06 15:57:32","stock":78,"label":"羅氏家用新冠病毒抗原自我檢測套組","address":"高雄市前鎮區瑞隆路４７２號１樓","remark":"快篩實名制，每天16:00開始販售，售完為止。","phone":"(07)7137171"},"geometry":{"type":"Point","coordinates":[120.3291,22.60547]}},{"type":"Feature","properties":{"name":"大樹孔鳳藥局","id":"5907380264","updateTime":"2022/05/06 15:57:32","stock":78,"label":"羅氏家用新冠病毒抗原自我檢測套組","address":"高雄市小港區孔鳳路５１９、５２１號","remark":"快篩實名制，每天16:00開始販售，售完為止。","phone":"(07)7918521"},"geometry":{"type":"Point","coordinates":[120.3587,22.5828]}},{"type":"Feature","properties":{"name":"大樹小港藥局","id":"5907380424","updateTime":"2022/05/06 15:57:32","stock":78,"label":"羅氏家用新冠病毒抗原自我檢測套組","address":"高雄市小港區康莊路７５號１樓","remark":"快篩實名制，每天16:00開始販售，售完為止。","phone":"(07)8068328"},"geometry":{"type":"Point","coordinates":[120.3559,22.56853]}},{"type":"Feature","properties":{"name":"永好藥局","id":"5911011325","updateTime":"2022/05/06 15:57:32","stock":7,"label":"羅氏家用新冠病毒抗原自我檢測套組","address":"基隆市中正區北寧路３１５號１樓","remark":"快篩星期一*三*五是單號 二*四雙號 下午14:30販售 星期六星期日休息","phone":"(02)24697639"},"geometry":{"type":"Point","coordinates":[121.7951,25.13981]}},{"type":"Feature","properties":{"name":"中正藥局","id":"5911011638","updateTime":"2022/05/06 15:57:32","stock":78,"label":"羅氏家用新冠病毒抗原自我檢測套組","address":"基隆市中正區新豐街３８５號１、２樓","remark":"快篩實名制，每天16:00開始販售，售完為止。","phone":"(02)24690660"},"geometry":{"type":"Point","coordinates":[121.7856,25.13537]}},{"type":"Feature","properties":{"name":"百福仁愛專業藥局","id":"5911041958","updateTime":"2022/05/06 15:57:32","stock":1,"label":"羅氏家用新冠病毒抗原自我檢測套組","address":"基隆市仁愛區仁四路５０號１樓","remark":"4／30起，早上8:00販售快篩","phone":"(02)24266699"},"geometry":{"type":"Point","coordinates":[121.7413,25.12829]}},{"type":"Feature","properties":{"name":"大哈密藥局","id":"5911051490","updateTime":"2022/05/06 15:57:32","stock":6,"label":"羅氏家用新冠病毒抗原自我檢測套組","address":"基隆市中山區中山二路５號","remark":"發放快篩時間：星期一至星期五 15:00-17:00； 星期六 9:30-11:30","phone":"(02)24285368"},"geometry":{"type":"Point","coordinates":[121.741,25.13678]}},{"type":"Feature","properties":{"name":"小不點健保藥局","id":"5911071536","updateTime":"2022/05/06 15:57:32","stock":22,"label":"羅氏家用新冠病毒抗原自我檢測套組","address":"基隆市信義區深溪路１２６號１樓","remark":"無","phone":"(02)24683985"},"geometry":{"type":"Point","coordinates":[121.7827,25.13375]}},{"type":"Feature","properties":{"name":"基隆藥局","id":"5911071590","updateTime":"2022/05/06 15:57:32","stock":78,"label":"羅氏家用新冠病毒抗原自我檢測套組","address":"基隆市信義區東信路１６６、１６８號１、２樓","remark":"快篩實名制，每天16:00開始販售，售完為止。","phone":"(02)24680955"},"geometry":{"type":"Point","coordinates":[121.7646,25.12821]}},{"type":"Feature","properties":{"name":"仁美藥局","id":"5912012120","updateTime":"2022/05/06 15:57:32","stock":78,"label":"羅氏家用新冠病毒抗原自我檢測套組","address":"新竹市東區振興里振興路５２號","remark":"週一~週六晚上六點販售（週日店休）不發號碼牌!沒有自費快篩劑，請不要問我要幾點排隊，盡量不打電話，感恩!!","phone":"(03)5625398"},"geometry":{"type":"Point","coordinates":[120.9625,24.79493]}},{"type":"Feature","properties":{"name":"婷婷藥局","id":"5912012737","updateTime":"2022/05/06 15:57:32","stock":1,"label":"羅氏家用新冠病毒抗原自我檢測套組","address":"新竹市東區明湖路965號","remark":"5／6星期五下午14點賣快篩","phone":"(03)5290999"},"geometry":{"type":"Point","coordinates":[120.9669,24.77371]}},{"type":"Feature","properties":{"name":"田美藥局","id":"5912013494","updateTime":"2022/05/06 15:57:32","stock":78,"label":"羅氏家用新冠病毒抗原自我檢測套組","address":"新竹市東區田美三街３５之１號１樓","remark":"快篩實名制，每天16:00開始販售，售完為止。","phone":"(03)5350233"},"geometry":{"type":"Point","coordinates":[120.9767,24.81572]}},{"type":"Feature","properties":{"name":"倫洲藥局","id":"5912013501","updateTime":"2022/05/06 15:57:32","stock":9,"label":"羅氏家用新冠病毒抗原自我檢測套組","address":"新竹市東區食品路９７號１樓","remark":"快篩開賣時間星期一到五為下午兩點，星期六早上八點半，星期日休息","phone":"(03)5744088"},"geometry":{"type":"Point","coordinates":[120.9779,24.79801]}},{"type":"Feature","properties":{"name":"合康連鎖藥局關新店","id":"5912013565","updateTime":"2022/05/06 15:57:32","stock":78,"label":"羅氏家用新冠病毒抗原自我檢測套組","address":"新竹市東區關新北路１６１號１樓","remark":"快篩販售時間:17:00","phone":"(03)5679666"},"geometry":{"type":"Point","coordinates":[121.0204,24.78614]}},{"type":"Feature","properties":{"name":"關東藥局","id":"5912013672","updateTime":"2022/05/06 15:57:32","stock":78,"label":"羅氏家用新冠病毒抗原自我檢測套組","address":"新竹市東區光復路１段３３２、３３４號１至２樓","remark":"快篩實名制，每天16:00開始販售，售完為止。","phone":"(03)5777077"},"geometry":{"type":"Point","coordinates":[121.0187,24.78289]}},{"type":"Feature","properties":{"name":"佑全新竹光華藥局","id":"5912042851","updateTime":"2022/05/06 15:57:32","stock":78,"label":"羅氏家用新冠病毒抗原自我檢測套組","address":"新竹市北區湳雅里光華街８６之１號１樓及２樓","remark":"實名制快篩:16點開賣。因快篩配送作業不及，可能會調整開賣時間，請依現場公告為主","phone":"(03)5311313"},"geometry":{"type":"Point","coordinates":[120.9701,24.81723]}},{"type":"Feature","properties":{"name":"新竹北門藥局","id":"5912042940","updateTime":"2022/05/06 15:57:32","stock":78,"label":"羅氏家用新冠病毒抗原自我檢測套組","address":"新竹市北區中正路３６０、３６２號１樓","remark":"無","phone":"(03)5333234"},"geometry":{"type":"Point","coordinates":[120.9629,24.81414]}},{"type":"Feature","properties":{"name":"大樹新竹藥局","id":"5912042968","updateTime":"2022/05/06 15:57:32","stock":78,"label":"羅氏家用新冠病毒抗原自我檢測套組","address":"新竹市北區西大路５４０、５４２號１、２樓","remark":"快篩實名制，每天16:00開始販售，售完為止。","phone":"(03)5250388"},"geometry":{"type":"Point","coordinates":[120.9619,24.80676]}},{"type":"Feature","properties":{"name":"中港大藥局","id":"5917032382","updateTime":"2022/05/06 15:57:32","stock":19,"label":"羅氏家用新冠病毒抗原自我檢測套組","address":"臺中市西區臺灣大道２段１３２號","remark":"無","phone":"(04)22080708"},"geometry":{"type":"Point","coordinates":[120.6714,24.14995]}},{"type":"Feature","properties":{"name":"五六藥局","id":"5917072251","updateTime":"2022/05/06 15:57:32","stock":62,"label":"羅氏家用新冠病毒抗原自我檢測套組","address":"臺中市南屯區南屯路２段２４０號","remark":"快篩週一至週六16 :00；週日20 : 00開始販售， 售完為止. （不發號碼牌）","phone":"(04)24757156"},"geometry":{"type":"Point","coordinates":[120.6493,24.13696]}},{"type":"Feature","properties":{"name":"台安藥局","id":"5921012085","updateTime":"2022/05/06 15:57:32","stock":41,"label":"羅氏家用新冠病毒抗原自我檢測套組","address":"臺南市東區大同路一段１６３號","remark":"快篩下午四點開始銷售","phone":"(06)2150011"},"geometry":{"type":"Point","coordinates":[120.2113,22.98503]}},{"type":"Feature","properties":{"name":"惠光藥局","id":"5921040623","updateTime":"2022/05/06 15:57:32","stock":72,"label":"羅氏家用新冠病毒抗原自我檢測套組","address":"臺南市北區文亢里文賢路２３６號","remark":"快篩代售:星期日公休","phone":"(06)2586316"},"geometry":{"type":"Point","coordinates":[120.1938,23.0042]}},{"type":"Feature","properties":{"name":"丞功藥局","id":"5921051582","updateTime":"2022/05/06 15:57:32","stock":1,"label":"羅氏家用新冠病毒抗原自我檢測套組","address":"臺南市中西區成功路３１號","remark":"星期一-六08:00-售完","phone":"(06)2287641"},"geometry":{"type":"Point","coordinates":[120.2095,22.99747]}},{"type":"Feature","properties":{"name":"慈安藥局","id":"5921060321","updateTime":"2022/05/06 15:57:32","stock":80,"label":"羅氏家用新冠病毒抗原自我檢測套組","address":"臺南市安南區大安街５３號","remark":"下午2:00","phone":"(06)2551117"},"geometry":{"type":"Point","coordinates":[120.1919,23.03148]}},{"type":"Feature","properties":{"name":"德和藥局","id":"5922012552","updateTime":"2022/05/06 15:57:32","stock":47,"label":"羅氏家用新冠病毒抗原自我檢測套組","address":"嘉義市東區新生路７０３號１樓","remark":"快篩試劑 星期1-6 早上8點開始販賣","phone":"(05)2789940"},"geometry":{"type":"Point","coordinates":[120.4553,23.49526]}},{"type":"Feature","properties":{"name":"大明藥局","id":"5922012945","updateTime":"2022/05/06 15:57:32","stock":4,"label":"羅氏家用新冠病毒抗原自我檢測套組","address":"嘉義市東區大雅路二段６８２號","remark":"5／6 號碼卡已發完（星期一至六：11點發號碼牌12-14點開始販售）","phone":"(05)2760958"},"geometry":{"type":"Point","coordinates":[120.4663,23.47719]}},{"type":"Feature","properties":{"name":"佑全嘉義吳鳳南藥局","id":"5922013068","updateTime":"2022/05/06 15:57:32","stock":8,"label":"羅氏家用新冠病毒抗原自我檢測套組","address":"嘉義市東區吳鳳南路５８５、５８７號","remark":"領取快篩14:00","phone":"(05)2399311"},"geometry":{"type":"Point","coordinates":[120.459,23.45639]}},{"type":"Feature","properties":{"name":"後庄藥局","id":"5922013102","updateTime":"2022/05/06 15:57:32","stock":78,"label":"羅氏家用新冠病毒抗原自我檢測套組","address":"嘉義市東區吳鳳南路６４９號","remark":"快篩實名制，每天16:00開始販售，售完為止。","phone":"(05)2391233"},"geometry":{"type":"Point","coordinates":[120.4594,23.45511]}},{"type":"Feature","properties":{"name":"富善藥局","id":"5922013111","updateTime":"2022/05/06 15:57:32","stock":19,"label":"羅氏家用新冠病毒抗原自我檢測套組","address":"嘉義市東區新生路２３４號","remark":"5／13、14休假，實名制快篩早上9:10-12:00下午3:10-5:00","phone":"(05)2759559"},"geometry":{"type":"Point","coordinates":[120.4609,23.48419]}},{"type":"Feature","properties":{"name":"軍輝啄木鳥藥局","id":"5922013184","updateTime":"2022/05/06 15:57:32","stock":78,"label":"羅氏家用新冠病毒抗原自我檢測套組","address":"嘉義市東區軍輝路２２２號","remark":"週一~日下午4:00開始","phone":"(05)2395963"},"geometry":{"type":"Point","coordinates":[120.4588,23.455]}},{"type":"Feature","properties":{"name":"民權藥局","id":"5922013193","updateTime":"2022/05/06 15:57:32","stock":78,"label":"羅氏家用新冠病毒抗原自我檢測套組","address":"嘉義市東區民權路１５５號１樓、１５７號１樓","remark":"快篩實名制，每天16:00開始販售，售完為止。","phone":"(05)2775322"},"geometry":{"type":"Point","coordinates":[120.4604,23.48374]}},{"type":"Feature","properties":{"name":"全德藥局","id":"5922020509","updateTime":"2022/05/06 15:57:32","stock":63,"label":"羅氏家用新冠病毒抗原自我檢測套組","address":"嘉義市西區福民里興業西路２８９號","remark":"營業時間請電話洽詢  販售：19 :30~20:30","phone":"(05)2854263"},"geometry":{"type":"Point","coordinates":[120.4392,23.46776]}},{"type":"Feature","properties":{"name":"大統藥局","id":"5922020858","updateTime":"2022/05/06 15:57:32","stock":19,"label":"羅氏家用新冠病毒抗原自我檢測套組","address":"嘉義市西區慶安里北興街１３６號","remark":"5月6日預約登記已滿.有預約的民眾請於上午9:00點後領取","phone":"(05)2330230"},"geometry":{"type":"Point","coordinates":[120.4421,23.48389]}},{"type":"Feature","properties":{"name":"平良藥局","id":"5922020894","updateTime":"2022/05/06 15:57:32","stock":2,"label":"羅氏家用新冠病毒抗原自我檢測套組","address":"嘉義市西區致遠里興業西路８４號１樓","remark":"下午3點開賣快篩","phone":"(05)2235220"},"geometry":{"type":"Point","coordinates":[120.4443,23.46856]}},{"type":"Feature","properties":{"name":"竹圍藥局","id":"5922021006","updateTime":"2022/05/06 15:57:32","stock":78,"label":"羅氏家用新冠病毒抗原自我檢測套組","address":"嘉義市西區友愛路２７０、２７２號","remark":"快篩實名制，每天16:00開始販售，售完為止。","phone":"(05)2811233"},"geometry":{"type":"Point","coordinates":[120.4339,23.4837]}},{"type":"Feature","properties":{"name":"埔墘藥局","id":"5931010011","updateTime":"2022/05/06 15:57:32","stock":2,"label":"羅氏家用新冠病毒抗原自我檢測套組","address":"新北市板橋區中山路２段２２７號","remark":"實名制快篩每天14:30發放號碼牌","phone":"(02)29646705"},"geometry":{"type":"Point","coordinates":[121.477,25.01741]}},{"type":"Feature","properties":{"name":"友祥藥局","id":"5931010235","updateTime":"2022/05/06 15:57:32","stock":1,"label":"羅氏家用新冠病毒抗原自我檢測套組","address":"新北市板橋區裕民街１０７號","remark":"無","phone":"(02)22544666"},"geometry":{"type":"Point","coordinates":[121.4599,25.02773]}},{"type":"Feature","properties":{"name":"正成藥師藥局","id":"5931010397","updateTime":"2022/05/06 15:57:32","stock":78,"label":"羅氏家用新冠病毒抗原自我檢測套組","address":"新北市板橋區三民路２段１５４巷７號","remark":"無","phone":"(02)29512760"},"geometry":{"type":"Point","coordinates":[121.4787,25.01515]}},{"type":"Feature","properties":{"name":"長弘藥局","id":"5931011947","updateTime":"2022/05/06 15:57:32","stock":79,"label":"羅氏家用新冠病毒抗原自我檢測套組","address":"新北市板橋區龍泉街１１０號","remark":"勿打電話 快篩地圖不準 下午五點開始販售 若排隊人數超過庫存人數會提前販賣","phone":"(02)22558789"},"geometry":{"type":"Point","coordinates":[121.4568,25.02454]}},{"type":"Feature","properties":{"name":"溪北藥局","id":"5931012060","updateTime":"2022/05/06 15:57:32","stock":66,"label":"羅氏家用新冠病毒抗原自我檢測套組","address":"新北市板橋區溪北路７８號１樓","remark":"無","phone":"(02)26866528"},"geometry":{"type":"Point","coordinates":[121.4281,24.98953]}},{"type":"Feature","properties":{"name":"合泰藥局","id":"5931013692","updateTime":"2022/05/06 15:57:32","stock":7,"label":"羅氏家用新冠病毒抗原自我檢測套組","address":"新北市板橋區忠孝路１９號１樓","remark":"無","phone":"(02)29572437"},"geometry":{"type":"Point","coordinates":[121.4604,25.002]}},{"type":"Feature","properties":{"name":"廣益藥局","id":"5931014555","updateTime":"2022/05/06 15:57:32","stock":57,"label":"羅氏家用新冠病毒抗原自我檢測套組","address":"新北市板橋區自由路２１號","remark":"下午3點50發號碼牌，4點開始賣","phone":"(02)22545726"},"geometry":{"type":"Point","coordinates":[121.4654,25.02296]}},{"type":"Feature","properties":{"name":"皇慶藥局","id":"5931015187","updateTime":"2022/05/06 15:57:32","stock":16,"label":"羅氏家用新冠病毒抗原自我檢測套組","address":"新北市板橋區南門街８１、８３號１、２樓及館前西路１１２巷７號","remark":"實名防疫快篩號碼牌發放時間自15:00","phone":"(02)29655351"},"geometry":{"type":"Point","coordinates":[121.4568,25.0077]}},{"type":"Feature","properties":{"name":"僑中藥師藥局","id":"5931015605","updateTime":"2022/05/06 15:57:32","stock":78,"label":"羅氏家用新冠病毒抗原自我檢測套組","address":"新北市板橋區僑中１街１０２巷５弄１５號１樓","remark":"無","phone":"(02)29692547"},"geometry":{"type":"Point","coordinates":[121.4439,25.01262]}},{"type":"Feature","properties":{"name":"正康健保藥局","id":"5931015687","updateTime":"2022/05/06 15:57:32","stock":78,"label":"羅氏家用新冠病毒抗原自我檢測套組","address":"新北市板橋區大觀路２段６５號１樓","remark":"下午13:30依現場順序開始販售快篩，快篩配送絮亂庫存不準!!","phone":"(02)22756681"},"geometry":{"type":"Point","coordinates":[121.4467,25.00246]}},{"type":"Feature","properties":{"name":"品品藥局","id":"5931015749","updateTime":"2022/05/06 15:57:32","stock":39,"label":"羅氏家用新冠病毒抗原自我檢測套組","address":"新北市板橋區中山路２段４０２號〈１樓〉","remark":"星期六9:30-15:30.連假上班9:30-15:30（半天）快篩每日下午4點發.","phone":"(02)29647917"},"geometry":{"type":"Point","coordinates":[121.4827,25.02073]}},{"type":"Feature","properties":{"name":"湯明藥局","id":"5931016273","updateTime":"2022/05/06 15:57:32","stock":45,"label":"羅氏家用新冠病毒抗原自我檢測套組","address":"新北市板橋區中山路２段３１９號１樓","remark":"週一到週五 下午四點  六日時間未定 排隊不發號碼","phone":"(02)29571980"},"geometry":{"type":"Point","coordinates":[121.479,25.01866]}},{"type":"Feature","properties":{"name":"廣泰藥師藥局","id":"5931016577","updateTime":"2022/05/06 15:57:32","stock":1,"label":"羅氏家用新冠病毒抗原自我檢測套組","address":"新北市板橋區館前西路１５０號１樓","remark":"無","phone":"(02)89698381"},"geometry":{"type":"Point","coordinates":[121.4556,25.00843]}},{"type":"Feature","properties":{"name":"順儷府中藥局","id":"5931017172","updateTime":"2022/05/06 15:57:32","stock":8,"label":"羅氏家用新冠病毒抗原自我檢測套組","address":"新北市板橋區中山路１段９６號（１樓）","remark":"無","phone":"(02)29541199"},"geometry":{"type":"Point","coordinates":[121.4622,25.01016]}},{"type":"Feature","properties":{"name":"板橋大樹藥局","id":"5931017289","updateTime":"2022/05/06 15:57:32","stock":78,"label":"羅氏家用新冠病毒抗原自我檢測套組","address":"新北市板橋區忠孝路２８號（１樓）","remark":"快篩實名制，每天16:00開始販售，售完為止。","phone":"(02)29555551"},"geometry":{"type":"Point","coordinates":[121.4603,25.00176]}},{"type":"Feature","properties":{"name":"埔全藥局","id":"5931017529","updateTime":"2022/05/06 15:57:32","stock":63,"label":"羅氏家用新冠病毒抗原自我檢測套組","address":"新北市板橋區忠孝路３３號（１樓）","remark":"實名快篩 可以加line詢問","phone":"(02)29567309"},"geometry":{"type":"Point","coordinates":[121.4608,25.00206]}},{"type":"Feature","properties":{"name":"新埔健保藥局","id":"5931017618","updateTime":"2022/05/06 15:57:32","stock":39,"label":"羅氏家用新冠病毒抗原自我檢測套組","address":"新北市板橋區自由路２號１樓","remark":"無","phone":"(02)22558878"},"geometry":{"type":"Point","coordinates":[121.4654,25.02222]}},{"type":"Feature","properties":{"name":"明翠藥局","id":"5931017789","updateTime":"2022/05/06 15:57:32","stock":78,"label":"羅氏家用新冠病毒抗原自我檢測套組","address":"新北市板橋區四維路１４６、１４８號１、２樓","remark":"快篩實名制，每天16:00開始販售，售完為止。","phone":"(02)22550201"},"geometry":{"type":"Point","coordinates":[121.4651,25.02555]}},{"type":"Feature","properties":{"name":"社後藥局","id":"5931017912","updateTime":"2022/05/06 15:57:32","stock":78,"label":"羅氏家用新冠病毒抗原自我檢測套組","address":"新北市板橋區大仁街３９號（１樓）","remark":"快篩實名制，每天16:00開始販售，售完為止。","phone":"(02)29665662"},"geometry":{"type":"Point","coordinates":[121.4551,25.01661]}},{"type":"Feature","properties":{"name":"松柏藥局","id":"5931017985","updateTime":"2022/05/06 15:57:32","stock":78,"label":"羅氏家用新冠病毒抗原自我檢測套組","address":"新北市板橋區松柏街９４號（１樓）","remark":"快篩實名制，每天16:00開始販售，售完為止。","phone":"(02)82585223"},"geometry":{"type":"Point","coordinates":[121.4767,25.03065]}},{"type":"Feature","properties":{"name":"後埔藥局","id":"5931017994","updateTime":"2022/05/06 15:57:32","stock":13,"label":"羅氏家用新冠病毒抗原自我檢測套組","address":"新北市板橋區華興街９號（１樓）","remark":"5／6  下午2點發放號碼牌*確保作業流暢請自備500元*每天 78 份晚上10 點以前領取完畢（過卡時間差異剩餘數量僅供參考）","phone":"(02)89510306"},"geometry":{"type":"Point","coordinates":[121.459,25.00457]}},{"type":"Feature","properties":{"name":"廣福健保藥局","id":"5931018053","updateTime":"2022/05/06 15:57:32","stock":71,"label":"羅氏家用新冠病毒抗原自我檢測套組","address":"新北市板橋區三民路１段７６號（１樓）","remark":"實名制快篩每日下午16:00開始販售","phone":"(02)29544288"},"geometry":{"type":"Point","coordinates":[121.4793,25.02207]}},{"type":"Feature","properties":{"name":"玉美藥局","id":"5931020446","updateTime":"2022/05/06 15:57:32","stock":64,"label":"羅氏家用新冠病毒抗原自我檢測套組","address":"新北市三重區力行路２段１３６巷４９弄２號","remark":"實名制快篩:販售下午4:00   ** 沒有預先發號碼牌，現場販售.**","phone":"(02)22879836"},"geometry":{"type":"Point","coordinates":[121.4793,25.07519]}},{"type":"Feature","properties":{"name":"龍門藥局","id":"5931021532","updateTime":"2022/05/06 15:57:32","stock":78,"label":"羅氏家用新冠病毒抗原自我檢測套組","address":"新北市三重區龍門路１８９號","remark":"實名制快篩販售時間~星期一至星期六下午3點","phone":"(02)29756141"},"geometry":{"type":"Point","coordinates":[121.4996,25.07322]}},{"type":"Feature","properties":{"name":"安泰藥局","id":"5931023447","updateTime":"2022/05/06 15:57:32","stock":115,"label":"羅氏家用新冠病毒抗原自我檢測套組","address":"新北市三重區正義北路３００－３號２樓","remark":"5／2只有早上8:30--12:00營業下午.及晚上休息","phone":"(02)89815379"},"geometry":{"type":"Point","coordinates":[121.4953,25.06978]}},{"type":"Feature","properties":{"name":"寶貝藥局","id":"5931023563","updateTime":"2022/05/06 15:57:32","stock":48,"label":"羅氏家用新冠病毒抗原自我檢測套組","address":"新北市三重區仁愛街３０２－１號","remark":"無","phone":"(02)29802190"},"geometry":{"type":"Point","coordinates":[121.4921,25.07944]}},{"type":"Feature","properties":{"name":"開元藥局","id":"5931023858","updateTime":"2022/05/06 15:57:32","stock":21,"label":"羅氏家用新冠病毒抗原自我檢測套組","address":"新北市三重區正義北路３２４號２樓","remark":"無","phone":"(02)29873976"},"geometry":{"type":"Point","coordinates":[121.4949,25.07039]}},{"type":"Feature","properties":{"name":"樂活處方箋藥局","id":"5931024551","updateTime":"2022/05/06 15:57:32","stock":61,"label":"羅氏家用新冠病毒抗原自我檢測套組","address":"新北市三重區中正北路９９號１樓","remark":"4PM快篩  六日休","phone":"(02)29805182"},"geometry":{"type":"Point","coordinates":[121.4897,25.06325]}},{"type":"Feature","properties":{"name":"德榮藥局","id":"5931024631","updateTime":"2022/05/06 15:57:32","stock":78,"label":"羅氏家用新冠病毒抗原自我檢測套組","address":"新北市三重區中華路９１號１樓","remark":"政府快篩販售時間星期一至星期六晚間19:00整現場販售..謝謝","phone":"(02)29717291"},"geometry":{"type":"Point","coordinates":[121.4836,25.06302]}},{"type":"Feature","properties":{"name":"仁美藥局","id":"5931025914","updateTime":"2022/05/06 15:57:32","stock":78,"label":"羅氏家用新冠病毒抗原自我檢測套組","address":"新北市三重區慈愛街５１號１、２樓","remark":"快篩實名制，每天16:00開始販售，售完為止。","phone":"(02)22805150"},"geometry":{"type":"Point","coordinates":[121.4861,25.07908]}},{"type":"Feature","properties":{"name":"永吉藥局","id":"5931025932","updateTime":"2022/05/06 15:57:32","stock":78,"label":"羅氏家用新冠病毒抗原自我檢測套組","address":"新北市三重區車路頭街９１號１樓","remark":"快篩實名制，每天16:00開始販售，售完為止。","phone":"(02)22860432"},"geometry":{"type":"Point","coordinates":[121.4844,25.07422]}},{"type":"Feature","properties":{"name":"躍獅欣欣藥局","id":"5931025969","updateTime":"2022/05/06 15:57:32","stock":70,"label":"羅氏家用新冠病毒抗原自我檢測套組","address":"新北市三重區正義北路２３３號１樓","remark":"16:00開始販售，15:50發號碼牌，離開視同放棄。","phone":"(02)29816955"},"geometry":{"type":"Point","coordinates":[121.496,25.06915]}},{"type":"Feature","properties":{"name":"五華春天生活藥局","id":"5931026064","updateTime":"2022/05/06 15:57:32","stock":1,"label":"羅氏家用新冠病毒抗原自我檢測套組","address":"新北市三重區五華街７３號１、２樓","remark":"快篩代售時間：週一至週日15：00，現場排隊購買，售完為止。（物流配送不及則例外，以門市公告為主）","phone":"(02)29876838"},"geometry":{"type":"Point","coordinates":[121.4925,25.08291]}},{"type":"Feature","properties":{"name":"大有藥局","id":"5931026082","updateTime":"2022/05/06 15:57:32","stock":78,"label":"羅氏家用新冠病毒抗原自我檢測套組","address":"新北市三重區中正北路２１３號１、２樓及２１５號１、２樓","remark":"快篩實名制，每天16:00開始販售，售完為止。","phone":"(02)29885771"},"geometry":{"type":"Point","coordinates":[121.4763,25.07013]}},{"type":"Feature","properties":{"name":"重新藥局","id":"5931026091","updateTime":"2022/05/06 15:57:32","stock":78,"label":"羅氏家用新冠病毒抗原自我檢測套組","address":"新北市三重區重新路４段１２號１樓","remark":"快篩實名制，每天16:00開始販售，售完為止。","phone":"(02)29742700"},"geometry":{"type":"Point","coordinates":[121.4888,25.05775]}},{"type":"Feature","properties":{"name":"威康藥局","id":"5931032302","updateTime":"2022/05/06 15:57:32","stock":68,"label":"羅氏家用新冠病毒抗原自我檢測套組","address":"新北市永和區中正路１５３號","remark":"無","phone":"(02)29461128"},"geometry":{"type":"Point","coordinates":[121.5163,24.9984]}},{"type":"Feature","properties":{"name":"華特健康藥局","id":"5931032811","updateTime":"2022/05/06 15:57:32","stock":5,"label":"羅氏家用新冠病毒抗原自我檢測套組","address":"新北市永和區永貞路３６２號１樓","remark":"快篩販賣時間13:00-15:00","phone":"(02)29264391"},"geometry":{"type":"Point","coordinates":[121.5102,25.00667]}},{"type":"Feature","properties":{"name":"台化藥局","id":"5931033774","updateTime":"2022/05/06 15:57:32","stock":1,"label":"羅氏家用新冠病毒抗原自我檢測套組","address":"新北市永和區勵行街１１９號１樓","remark":"無","phone":"(02)22318585"},"geometry":{"type":"Point","coordinates":[121.5175,25.01202]}},{"type":"Feature","properties":{"name":"新禾藥局","id":"5931033809","updateTime":"2022/05/06 15:57:32","stock":74,"label":"羅氏家用新冠病毒抗原自我檢測套組","address":"新北市永和區中和路５３７號１樓","remark":"無","phone":"(02)29208877"},"geometry":{"type":"Point","coordinates":[121.5114,25.00318]}},{"type":"Feature","properties":{"name":"永和大樹藥局","id":"5931033961","updateTime":"2022/05/06 15:57:32","stock":78,"label":"羅氏家用新冠病毒抗原自我檢測套組","address":"新北市永和區福和路１４３號１、２樓","remark":"快篩實名制，每天16:00開始販售，售完為止。","phone":"(02)29233377"},"geometry":{"type":"Point","coordinates":[121.5207,25.00766]}},{"type":"Feature","properties":{"name":"亮點藥局","id":"5931034146","updateTime":"2022/05/06 15:57:32","stock":92,"label":"羅氏家用新冠病毒抗原自我檢測套組","address":"新北市永和區竹林路７１號１樓","remark":"快篩發放時段 下午16:30-18:00","phone":"(02)89253895"},"geometry":{"type":"Point","coordinates":[121.5186,25.01355]}},{"type":"Feature","properties":{"name":"一安藥妝藥局","id":"5931043565","updateTime":"2022/05/06 15:57:32","stock":4,"label":"羅氏家用新冠病毒抗原自我檢測套組","address":"新北市中和區中和路９號１.２樓","remark":"下午3點開始發號碼牌販售快篩","phone":"(02)22483778"},"geometry":{"type":"Point","coordinates":[121.4998,25.00221]}},{"type":"Feature","properties":{"name":"良安藥局","id":"5931043921","updateTime":"2022/05/06 15:57:32","stock":42,"label":"羅氏家用新冠病毒抗原自我檢測套組","address":"新北市中和區連城路４７７巷１號１樓","remark":"週六日不開店，實名制快篩，晚上9:00開始販售","phone":"(02)22225798"},"geometry":{"type":"Point","coordinates":[121.4833,24.99555]}},{"type":"Feature","properties":{"name":"四維藥局","id":"5931045130","updateTime":"2022/05/06 15:57:32","stock":78,"label":"羅氏家用新冠病毒抗原自我檢測套組","address":"新北市中和區四維街３７巷２號１樓","remark":"快篩實名制，每天16:00開始販售，售完為止。","phone":"(02)86681345"},"geometry":{"type":"Point","coordinates":[121.5124,24.98679]}},{"type":"Feature","properties":{"name":"昇育健康藥局","id":"5931052251","updateTime":"2022/05/06 15:57:32","stock":43,"label":"羅氏家用新冠病毒抗原自我檢測套組","address":"新北市新店區中正路７６巷１８號１樓","remark":"5／6 16:00 販售 請依序排隊 無發號碼牌","phone":"(02)86679631"},"geometry":{"type":"Point","coordinates":[121.5443,24.97085]}},{"type":"Feature","properties":{"name":"佑成藥局","id":"5931052608","updateTime":"2022/05/06 15:57:32","stock":78,"label":"羅氏家用新冠病毒抗原自我檢測套組","address":"新北市新店區民權路１０１號１樓","remark":"下午四點發快篩","phone":"(02)86673537"},"geometry":{"type":"Point","coordinates":[121.537,24.98281]}},{"type":"Feature","properties":{"name":"合康大藥局","id":"5931052724","updateTime":"2022/05/06 15:57:32","stock":2,"label":"羅氏家用新冠病毒抗原自我檢測套組","address":"新北市新店區中正路２６３－２號１樓","remark":"快篩14:00開始（有事先發號碼牌）網上還有數量是拿到號碼牌還沒來領的，拜託別再問了","phone":"(02)29109888"},"geometry":{"type":"Point","coordinates":[121.5384,24.97367]}},{"type":"Feature","properties":{"name":"巧新藥局","id":"5931053203","updateTime":"2022/05/06 15:57:32","stock":1,"label":"羅氏家用新冠病毒抗原自我檢測套組","address":"新北市新店區北宜路１段８４號１樓","remark":"15:00 依序領取快篩，不發號碼牌，勿打電話詢問","phone":"(02)29183565"},"geometry":{"type":"Point","coordinates":[121.5386,24.9556]}},{"type":"Feature","properties":{"name":"十安藥局","id":"5931060342","updateTime":"2022/05/06 15:57:32","stock":5,"label":"羅氏家用新冠病毒抗原自我檢測套組","address":"新北市新莊區中港路３１６號","remark":"自111／04／01起不再販賣實名制口罩","phone":"(02)29922859"},"geometry":{"type":"Point","coordinates":[121.4524,25.04544]}},{"type":"Feature","properties":{"name":"蒲陽藥局","id":"5931067136","updateTime":"2022/05/06 15:57:32","stock":2,"label":"羅氏家用新冠病毒抗原自我檢測套組","address":"新北市新莊區中港路５１４號","remark":"無","phone":"(02)29930069"},"geometry":{"type":"Point","coordinates":[121.4518,25.05187]}},{"type":"Feature","properties":{"name":"建嘉藥局","id":"5931067403","updateTime":"2022/05/06 15:57:32","stock":78,"label":"羅氏家用新冠病毒抗原自我檢測套組","address":"新北市新莊區中誠街４２號１樓","remark":"無","phone":"(02)29925261"},"geometry":{"type":"Point","coordinates":[121.4513,25.04812]}},{"type":"Feature","properties":{"name":"豐年藥局","id":"5931067565","updateTime":"2022/05/06 15:57:32","stock":2,"label":"羅氏家用新冠病毒抗原自我檢測套組","address":"新北市新莊區中正路３７７巷１６號","remark":"無","phone":"(02)22071182"},"geometry":{"type":"Point","coordinates":[121.4462,25.03395]}},{"type":"Feature","properties":{"name":"森活藥局","id":"5931068759","updateTime":"2022/05/06 15:57:32","stock":5,"label":"羅氏家用新冠病毒抗原自我檢測套組","address":"新北市新莊區民安路２２０－１號","remark":"實名快篩15點開賣","phone":"(02)22027927"},"geometry":{"type":"Point","coordinates":[121.426,25.02259]}},{"type":"Feature","properties":{"name":"中信藥師藥局","id":"5931069603","updateTime":"2022/05/06 15:57:32","stock":78,"label":"羅氏家用新冠病毒抗原自我檢測套組","address":"新北市新莊區中信街８０號１樓","remark":"AM 07:30 開始","phone":"(02)29969811"},"geometry":{"type":"Point","coordinates":[121.448,25.05311]}},{"type":"Feature","properties":{"name":"健業藥妝藥局","id":"5931069765","updateTime":"2022/05/06 15:57:32","stock":72,"label":"羅氏家用新冠病毒抗原自我檢測套組","address":"新北市新莊區中和街１３０號１樓","remark":"口罩販售資訊:下午3點~11點販售","phone":"(02)22796279"},"geometry":{"type":"Point","coordinates":[121.4475,25.04809]}},{"type":"Feature","properties":{"name":"宏泰藥局","id":"5931069792","updateTime":"2022/05/06 15:57:32","stock":89,"label":"羅氏家用新冠病毒抗原自我檢測套組","address":"新北市新莊區自信街３７號１樓","remark":"無","phone":"(02)29964649"},"geometry":{"type":"Point","coordinates":[121.4543,25.04863]}},{"type":"Feature","properties":{"name":"一心春天藥局","id":"593106A566","updateTime":"2022/05/06 15:57:32","stock":2,"label":"羅氏家用新冠病毒抗原自我檢測套組","address":"新北市新莊區中和街１３號１樓、地下室","remark":"快篩代售時間:週一至週日15:00現場排隊購買，售完為止。（物流配送不及則例外，以門市公告為主）","phone":"(02)89929482"},"geometry":{"type":"Point","coordinates":[121.4481,25.04342]}},{"type":"Feature","properties":{"name":"全鎵藥局","id":"593106A600","updateTime":"2022/05/06 15:57:32","stock":78,"label":"羅氏家用新冠病毒抗原自我檢測套組","address":"新北市新莊區建中街２２號１樓","remark":"16:00快篩開賣","phone":"(02)22761550"},"geometry":{"type":"Point","coordinates":[121.4493,25.03766]}},{"type":"Feature","properties":{"name":"建安藥局","id":"593106A931","updateTime":"2022/05/06 15:57:32","stock":78,"label":"羅氏家用新冠病毒抗原自我檢測套組","address":"新北市新莊區建安街１１７號、１１９號１樓","remark":"快篩實名制，每天16:00開始販售，售完為止。","phone":"(02)22051969"},"geometry":{"type":"Point","coordinates":[121.4262,25.02406]}},{"type":"Feature","properties":{"name":"丹鳳藥局","id":"593106A977","updateTime":"2022/05/06 15:57:32","stock":77,"label":"羅氏家用新冠病毒抗原自我檢測套組","address":"新北市新莊區中正路７４５、７４７號（１樓）","remark":"快篩實名制，每天16:00開始販售，售完為止。","phone":"(02)29065755"},"geometry":{"type":"Point","coordinates":[121.4227,25.0288]}},{"type":"Feature","properties":{"name":"家嘉藥局","id":"593106B036","updateTime":"2022/05/06 15:57:32","stock":19,"label":"羅氏家用新冠病毒抗原自我檢測套組","address":"新北市新莊區自立街１０３號（１樓）","remark":"號碼牌預計於快篩到貨後開始發放 依現場公告為主","phone":"(02)89926488"},"geometry":{"type":"Point","coordinates":[121.4553,25.04549]}},{"type":"Feature","properties":{"name":"大樹新莊藥局","id":"593106B107","updateTime":"2022/05/06 15:57:32","stock":78,"label":"羅氏家用新冠病毒抗原自我檢測套組","address":"新北市新莊區新泰路５９號１樓、２樓","remark":"快篩實名制，每天16:00開始販售，售完為止。","phone":"(02)22010566"},"geometry":{"type":"Point","coordinates":[121.4494,25.03405]}},{"type":"Feature","properties":{"name":"新康健保藥局","id":"593106B232","updateTime":"2022/05/06 15:57:32","stock":2,"label":"羅氏家用新冠病毒抗原自我檢測套組","address":"新北市新莊區自立街１７２號１樓","remark":"無","phone":"(02)29962558"},"geometry":{"type":"Point","coordinates":[121.4557,25.04537]}},{"type":"Feature","properties":{"name":"大樹幸福藥局","id":"593106B321","updateTime":"2022/05/06 15:57:32","stock":78,"label":"羅氏家用新冠病毒抗原自我檢測套組","address":"新北市新莊區幸福路６７２號１樓","remark":"快篩實名制，每天16:00開始販售，售完為止。","phone":"(02)29981066"},"geometry":{"type":"Point","coordinates":[121.4509,25.0493]}},{"type":"Feature","properties":{"name":"聖和藥局","id":"5931070366","updateTime":"2022/05/06 15:57:32","stock":78,"label":"羅氏家用新冠病毒抗原自我檢測套組","address":"新北市樹林區太元街５０號","remark":"中午12:30分開始發放快篩","phone":"(02)86866609"},"geometry":{"type":"Point","coordinates":[121.4183,24.97967]}},{"type":"Feature","properties":{"name":"樹林健業藥局","id":"5931072217","updateTime":"2022/05/06 15:57:32","stock":27,"label":"羅氏家用新冠病毒抗原自我檢測套組","address":"新北市樹林區東華街８９號１樓","remark":"實名制快篩下午3點半開始販售，現場排隊","phone":"(02)86851736"},"geometry":{"type":"Point","coordinates":[121.4159,24.98048]}},{"type":"Feature","properties":{"name":"佳園藥局","id":"5931072584","updateTime":"2022/05/06 15:57:32","stock":3,"label":"羅氏家用新冠病毒抗原自我檢測套組","address":"新北市樹林區佳園路一段４１巷２０號１樓","remark":"快篩實名制早上9點10分販售，發號碼牌，帶500元／健保卡","phone":"(02)26685056"},"geometry":{"type":"Point","coordinates":[121.3941,24.97095]}},{"type":"Feature","properties":{"name":"鶯歌宏達藥局","id":"5931081378","updateTime":"2022/05/06 15:57:32","stock":2,"label":"羅氏家用新冠病毒抗原自我檢測套組","address":"新北市鶯歌區國慶街１３８號１樓","remark":"下午三點開始販售實名制快篩~不要打電話來問~藥師有其他工作要做","phone":"(02)26709693"},"geometry":{"type":"Point","coordinates":[121.3508,24.95347]}},{"type":"Feature","properties":{"name":"鶯歌藥局","id":"5931081510","updateTime":"2022/05/06 15:57:32","stock":78,"label":"羅氏家用新冠病毒抗原自我檢測套組","address":"新北市鶯歌區鶯桃路２段１１號１樓","remark":"口罩販售時間：14:00 - 16:00","phone":"(02)86778778"},"geometry":{"type":"Point","coordinates":[121.3258,24.97205]}},{"type":"Feature","properties":{"name":"信義健保藥局","id":"5931081547","updateTime":"2022/05/06 15:57:32","stock":38,"label":"羅氏家用新冠病毒抗原自我檢測套組","address":"新北市鶯歌區信義街６３號１樓","remark":"5／6 早9:30 快篩限量40組發放","phone":"(02)86775563"},"geometry":{"type":"Point","coordinates":[121.3534,24.95571]}},{"type":"Feature","properties":{"name":"三峽藥局","id":"5931091892","updateTime":"2022/05/06 15:57:32","stock":78,"label":"羅氏家用新冠病毒抗原自我檢測套組","address":"新北市三峽區介壽路１段２７號１樓","remark":"快篩實名制，每天16:00開始販售，售完為止。","phone":"(02)26738868"},"geometry":{"type":"Point","coordinates":[121.3757,24.93321]}},{"type":"Feature","properties":{"name":"尚運藥局","id":"5931100154","updateTime":"2022/05/06 15:57:32","stock":224,"label":"羅氏家用新冠病毒抗原自我檢測套組","address":"新北市淡水區學府路５１巷１弄２０號","remark":"無","phone":"(02)26225149"},"geometry":{"type":"Point","coordinates":[121.4473,25.16892]}},{"type":"Feature","properties":{"name":"淡水藥局","id":"5931102461","updateTime":"2022/05/06 15:57:32","stock":78,"label":"羅氏家用新冠病毒抗原自我檢測套組","address":"新北市淡水區中山路１２７號（１、２樓）","remark":"快篩實名制，每天16:00開始販售，售完為止。","phone":"(02)86313663"},"geometry":{"type":"Point","coordinates":[121.4414,25.17107]}},{"type":"Feature","properties":{"name":"麒豐藥局","id":"5931110034","updateTime":"2022/05/06 15:57:32","stock":79,"label":"羅氏家用新冠病毒抗原自我檢測套組","address":"新北市汐止區樟樹一路１３５巷２號","remark":"實名制口罩銷售時間9:30~21:00","phone":"(02)26434737"},"geometry":{"type":"Point","coordinates":[121.6421,25.0656]}},{"type":"Feature","properties":{"name":"裕和藥局","id":"5931112083","updateTime":"2022/05/06 15:57:32","stock":132,"label":"羅氏家用新冠病毒抗原自我檢測套組","address":"新北市汐止區宜興街４號１樓","remark":"晚上9.00領實名制快篩時間","phone":"(02)26609119"},"geometry":{"type":"Point","coordinates":[121.6211,25.04126]}},{"type":"Feature","properties":{"name":"國升藥局","id":"5931112690","updateTime":"2022/05/06 15:57:32","stock":10,"label":"羅氏家用新冠病毒抗原自我檢測套組","address":"新北市汐止區建成路５９巷１號１樓","remark":"無","phone":"(02)26419459"},"geometry":{"type":"Point","coordinates":[121.6618,25.0732]}},{"type":"Feature","properties":{"name":"富康東科藥局","id":"5931112789","updateTime":"2022/05/06 15:57:32","stock":1,"label":"羅氏家用新冠病毒抗原自我檢測套組","address":"新北市汐止區新台五路１段９６號Ｃ棟１樓Ｃ１５號","remark":"每日九點至下午六點開放購買口罩，周六周日公休","phone":"(02)26969222"},"geometry":{"type":"Point","coordinates":[121.6483,25.06047]}},{"type":"Feature","properties":{"name":"蒲公英藥局","id":"5931113071","updateTime":"2022/05/06 15:57:32","stock":78,"label":"羅氏家用新冠病毒抗原自我檢測套組","address":"新北市汐止區連興街１２６號（１樓）","remark":"實名制快篩銷售時間:下午17:00-19:00（無發放號碼牌）","phone":"(02)26907770"},"geometry":{"type":"Point","coordinates":[121.6538,25.06188]}},{"type":"Feature","properties":{"name":"躍獅大同藥局","id":"5931113115","updateTime":"2022/05/06 15:57:32","stock":79,"label":"羅氏家用新冠病毒抗原自我檢測套組","address":"新北市汐止區新興路７號１樓","remark":"每日15:30販售實名制快篩","phone":"(02)26418399"},"geometry":{"type":"Point","coordinates":[121.6565,25.06493]}},{"type":"Feature","properties":{"name":"社后藥局","id":"5931113160","updateTime":"2022/05/06 15:57:32","stock":78,"label":"羅氏家用新冠病毒抗原自我檢測套組","address":"新北市汐止區康寧街４２４號１樓","remark":"快篩實名制，每天16:00開始販售，售完為止。","phone":"(02)26956321"},"geometry":{"type":"Point","coordinates":[121.6307,25.06801]}},{"type":"Feature","properties":{"name":"汐止藥局","id":"5931113188","updateTime":"2022/05/06 15:57:32","stock":78,"label":"羅氏家用新冠病毒抗原自我檢測套組","address":"新北市汐止區福德二路７０號１樓","remark":"無","phone":"(02)86932587"},"geometry":{"type":"Point","coordinates":[121.6331,25.06651]}},{"type":"Feature","properties":{"name":"瑞芳藥局","id":"5931121466","updateTime":"2022/05/06 15:57:32","stock":78,"label":"羅氏家用新冠病毒抗原自我檢測套組","address":"新北市瑞芳區明燈路３段５９之１及５９之２號","remark":"快篩實名制，每天16:00開始販售，售完為止。","phone":"(02)24966588"},"geometry":{"type":"Point","coordinates":[121.8057,25.10812]}},{"type":"Feature","properties":{"name":"璨鴻藥局","id":"5931131908","updateTime":"2022/05/06 15:57:32","stock":12,"label":"羅氏家用新冠病毒抗原自我檢測套組","address":"新北市土城區延和路１９１號","remark":"快篩發放時間星期一至五","phone":"(02)82622588"},"geometry":{"type":"Point","coordinates":[121.4692,24.99035]}},{"type":"Feature","properties":{"name":"萬昌健保藥局","id":"5931132245","updateTime":"2022/05/06 15:57:32","stock":48,"label":"羅氏家用新冠病毒抗原自我檢測套組","address":"新北市土城區中央路４段１６０號","remark":"3月2日起周一至周五15:00發號碼牌及販賣口罩  周六 10:00直接販售","phone":"(02)22678057"},"geometry":{"type":"Point","coordinates":[121.417,24.95827]}},{"type":"Feature","properties":{"name":"誠安藥局","id":"5931132343","updateTime":"2022/05/06 15:57:32","stock":156,"label":"羅氏家用新冠病毒抗原自我檢測套組","address":"新北市土城區中央路４段３６號１樓","remark":"快篩代售時段：平日晚上8點，售完為止","phone":"(02)22677737"},"geometry":{"type":"Point","coordinates":[121.4207,24.96088]}},{"type":"Feature","properties":{"name":"健業藥局","id":"5931132807","updateTime":"2022/05/06 15:57:32","stock":78,"label":"羅氏家用新冠病毒抗原自我檢測套組","address":"新北市土城區中央路２段２２３－１０號","remark":"無","phone":"(02)22704798"},"geometry":{"type":"Point","coordinates":[121.4407,24.97312]}},{"type":"Feature","properties":{"name":"美康藥妝藥局","id":"5931132950","updateTime":"2022/05/06 15:57:32","stock":70,"label":"羅氏家用新冠病毒抗原自我檢測套組","address":"新北市土城區延吉街２５４號１樓","remark":"實名制快篩前一天若有到貨，則隔日三點販售","phone":"(02)22616868"},"geometry":{"type":"Point","coordinates":[121.4664,24.98465]}},{"type":"Feature","properties":{"name":"城安大藥局","id":"5931133331","updateTime":"2022/05/06 15:57:32","stock":5,"label":"羅氏家用新冠病毒抗原自我檢測套組","address":"新北市土城區金城路３段４０號","remark":"快篩代售時間晚上8:30","phone":"(02)22646561"},"geometry":{"type":"Point","coordinates":[121.4656,24.98639]}},{"type":"Feature","properties":{"name":"菩提藥局","id":"5931133500","updateTime":"2022/05/06 15:57:32","stock":5,"label":"羅氏家用新冠病毒抗原自我檢測套組","address":"新北市土城區延和路１１４號１樓","remark":"無","phone":"(02)22624866"},"geometry":{"type":"Point","coordinates":[121.4673,24.98988]}},{"type":"Feature","properties":{"name":"中央藥局","id":"5931133662","updateTime":"2022/05/06 15:57:32","stock":78,"label":"羅氏家用新冠病毒抗原自我檢測套組","address":"新北市土城區中央路２段８４、８６號（１樓）","remark":"快篩實名制，每天16:00開始販售，售完為止。","phone":"(02)22630345"},"geometry":{"type":"Point","coordinates":[121.4423,24.97885]}},{"type":"Feature","properties":{"name":"全民藥局","id":"5931140158","updateTime":"2022/05/06 15:57:32","stock":117,"label":"羅氏家用新冠病毒抗原自我檢測套組","address":"新北市蘆洲區中山一路２０１、２０３號","remark":"無","phone":"(02)22837168"},"geometry":{"type":"Point","coordinates":[121.4687,25.07655]}},{"type":"Feature","properties":{"name":"松展多利日式連鎖藥粧藥局","id":"5931141726","updateTime":"2022/05/06 15:57:32","stock":22,"label":"羅氏家用新冠病毒抗原自我檢測套組","address":"新北市蘆洲區民族路１６１號","remark":"防疫物資每日下午02:00開始販售","phone":"(02)22882586"},"geometry":{"type":"Point","coordinates":[121.4793,25.08817]}},{"type":"Feature","properties":{"name":"集賢藥局","id":"5931143275","updateTime":"2022/05/06 15:57:32","stock":78,"label":"羅氏家用新冠病毒抗原自我檢測套組","address":"新北市蘆洲區信義路２２２巷６１號１、２樓","remark":"快篩實名制，每天16:00開始販售，售完為止。","phone":"(02)22882400"},"geometry":{"type":"Point","coordinates":[121.4813,25.08535]}},{"type":"Feature","properties":{"name":"大樹蘆洲藥局","id":"5931143300","updateTime":"2022/05/06 15:57:32","stock":78,"label":"羅氏家用新冠病毒抗原自我檢測套組","address":"新北市蘆洲區民族路２６５號１樓","remark":"無","phone":"(02)22810747"},"geometry":{"type":"Point","coordinates":[121.4762,25.09063]}},{"type":"Feature","properties":{"name":"喜得健藥局","id":"5931143337","updateTime":"2022/05/06 15:57:32","stock":78,"label":"羅氏家用新冠病毒抗原自我檢測套組","address":"新北市蘆洲區中興街５４號１樓","remark":"實名制快篩: 16:00","phone":"(02)22886419"},"geometry":{"type":"Point","coordinates":[121.4817,25.0874]}},{"type":"Feature","properties":{"name":"光禾藥局","id":"5931143364","updateTime":"2022/05/06 15:57:32","stock":38,"label":"羅氏家用新冠病毒抗原自我檢測套組","address":"新北市蘆洲區民權路１２２號１樓","remark":"無","phone":"(02)28480050"},"geometry":{"type":"Point","coordinates":[121.4734,25.08868]}},{"type":"Feature","properties":{"name":"五股藥局","id":"5931151713","updateTime":"2022/05/06 15:57:32","stock":78,"label":"羅氏家用新冠病毒抗原自我檢測套組","address":"新北市五股區成泰路１段２３５之２號（１樓）","remark":"快篩實名制，每天16:00開始販售，售完為止。","phone":"(02)22951150"},"geometry":{"type":"Point","coordinates":[121.4363,25.07968]}},{"type":"Feature","properties":{"name":"長康藥局","id":"5931171528","updateTime":"2022/05/06 15:57:32","stock":1,"label":"羅氏家用新冠病毒抗原自我檢測套組","address":"新北市林口區中山路１６６號１樓","remark":"周日公休","phone":"(02)26012661"},"geometry":{"type":"Point","coordinates":[121.3902,25.07894]}},{"type":"Feature","properties":{"name":"綠園藥局","id":"5931171582","updateTime":"2022/05/06 15:57:32","stock":3,"label":"羅氏家用新冠病毒抗原自我檢測套組","address":"新北市林口區仁愛路２段１０５號１樓","remark":"上午8:30-12:00、下午2:30-18:00、晚上18:00-21:30","phone":"(02)86012258"},"geometry":{"type":"Point","coordinates":[121.3843,25.07507]}},{"type":"Feature","properties":{"name":"一家好藥局","id":"5931171680","updateTime":"2022/05/06 15:57:32","stock":70,"label":"羅氏家用新冠病毒抗原自我檢測套組","address":"新北市林口區中山路５００號","remark":"無","phone":"(02)26028270"},"geometry":{"type":"Point","coordinates":[121.3794,25.08303]}},{"type":"Feature","properties":{"name":"力行藥局","id":"5931171813","updateTime":"2022/05/06 15:57:32","stock":80,"label":"羅氏家用新冠病毒抗原自我檢測套組","address":"新北市林口區文化３路１段４２３、４２５號１、２樓","remark":"快篩實名制，每天16:00開始販售，售完為止。","phone":"(02)26080711"},"geometry":{"type":"Point","coordinates":[121.3653,25.07438]}},{"type":"Feature","properties":{"name":"沐霖藥局","id":"5931171831","updateTime":"2022/05/06 15:57:32","stock":78,"label":"羅氏家用新冠病毒抗原自我檢測套組","address":"新北市林口區文化三路２段２８６號１樓","remark":"無","phone":"(02)26032086"},"geometry":{"type":"Point","coordinates":[121.3775,25.08304]}},{"type":"Feature","properties":{"name":"林口藥局","id":"5931171868","updateTime":"2022/05/06 15:57:32","stock":2,"label":"羅氏家用新冠病毒抗原自我檢測套組","address":"新北市林口區文化三路２段６９號１樓","remark":"快篩販售時間：下午02:40發號碼牌，03:00開始販售","phone":"(02)26001899"},"geometry":{"type":"Point","coordinates":[121.374,25.08006]}},{"type":"Feature","properties":{"name":"松南藥局","id":"5931250015","updateTime":"2022/05/06 15:57:32","stock":5,"label":"羅氏家用新冠病毒抗原自我檢測套組","address":"新北市雙溪區中華路２９號","remark":"週一至週五營業至晚上21點.週六至20點週日至12點","phone":"(02)24931085"},"geometry":{"type":"Point","coordinates":[121.8658,25.03728]}},{"type":"Feature","properties":{"name":"富仕康藥局","id":"5932011058","updateTime":"2022/05/06 15:57:32","stock":13,"label":"羅氏家用新冠病毒抗原自我檢測套組","address":"桃園市桃園區中華路１１８號地下１樓","remark":"口罩販賣時段：週一至週日15:30起","phone":"(03)3391318"},"geometry":{"type":"Point","coordinates":[121.3082,24.99023]}},{"type":"Feature","properties":{"name":"永祥大藥局","id":"5932011870","updateTime":"2022/05/06 15:57:32","stock":4,"label":"羅氏家用新冠病毒抗原自我檢測套組","address":"桃園市桃園區永安路５２８號","remark":"口罩販賣時段：週一至週六早上9點","phone":"(03)3337161"},"geometry":{"type":"Point","coordinates":[121.2986,25.00181]}},{"type":"Feature","properties":{"name":"桃園大興藥局","id":"5932012813","updateTime":"2022/05/06 15:57:32","stock":78,"label":"羅氏家用新冠病毒抗原自我檢測套組","address":"桃園市桃園區大興西路二段７６巷３號","remark":"快篩實名制，每天16:00開始販售，售完為止。","phone":"(03)3013222"},"geometry":{"type":"Point","coordinates":[121.2984,25.01183]}},{"type":"Feature","properties":{"name":"桃園中正藥局","id":"5932013392","updateTime":"2022/05/06 15:57:32","stock":91,"label":"羅氏家用新冠病毒抗原自我檢測套組","address":"桃園市桃園區中正路３７３號","remark":"快篩實名制，每天16:00開始販售，售完為止。","phone":"(03)3381600"},"geometry":{"type":"Point","coordinates":[121.3079,24.99955]}},{"type":"Feature","properties":{"name":"桃園春日藥局","id":"5932013687","updateTime":"2022/05/06 15:57:32","stock":79,"label":"羅氏家用新冠病毒抗原自我檢測套組","address":"桃園市桃園區春日路８７８號","remark":"快篩實名制，每天16:00開始販售，售完為止。","phone":"(03)3580101"},"geometry":{"type":"Point","coordinates":[121.3096,25.01561]}},{"type":"Feature","properties":{"name":"桃園民光藥局","id":"5932013721","updateTime":"2022/05/06 15:57:32","stock":78,"label":"羅氏家用新冠病毒抗原自我檢測套組","address":"桃園市桃園區中正路５６９號","remark":"快篩實名制，每天16:00開始販售，售完為止。","phone":"(03)3364888"},"geometry":{"type":"Point","coordinates":[121.3049,25.0041]}},{"type":"Feature","properties":{"name":"桃園寶山藥局","id":"5932013749","updateTime":"2022/05/06 15:57:32","stock":78,"label":"羅氏家用新冠病毒抗原自我檢測套組","address":"桃園市桃園區寶山街７２號","remark":"快篩實名制，每天16:00開始販售，售完為止。","phone":"(03)3250562"},"geometry":{"type":"Point","coordinates":[121.3175,25.01291]}},{"type":"Feature","properties":{"name":"福澤大業藥局","id":"5932013990","updateTime":"2022/05/06 15:57:32","stock":10,"label":"羅氏家用新冠病毒抗原自我檢測套組","address":"桃園市桃園區大業路１段４２２號１樓","remark":"家用快篩販賣時段15:30至售完為止","phone":"(03)3563865"},"geometry":{"type":"Point","coordinates":[121.3118,25.01473]}},{"type":"Feature","properties":{"name":"同德辰安藥局","id":"5932014004","updateTime":"2022/05/06 15:57:32","stock":78,"label":"羅氏家用新冠病毒抗原自我檢測套組","address":"桃園市桃園區同德十街２５號","remark":"實名制快篩試劑於下午4點開始販售，現場排隊，沒有發放號碼牌。","phone":"(03)3012028"},"geometry":{"type":"Point","coordinates":[121.294,25.01835]}},{"type":"Feature","properties":{"name":"大廟藥局","id":"5932014031","updateTime":"2022/05/06 15:57:32","stock":20,"label":"羅氏家用新冠病毒抗原自我檢測套組","address":"桃園市桃園區中山路１５８號１樓","remark":"無","phone":"(03)3337006"},"geometry":{"type":"Point","coordinates":[121.3091,24.99342]}},{"type":"Feature","properties":{"name":"桃園南平藥局","id":"5932014059","updateTime":"2022/05/06 15:57:32","stock":78,"label":"羅氏家用新冠病毒抗原自我檢測套組","address":"桃園市桃園區南平路３０２－１號１樓","remark":"快篩實名制，每天16:00開始販售，售完為止。","phone":"(03)3165222"},"geometry":{"type":"Point","coordinates":[121.2989,25.01855]}},{"type":"Feature","properties":{"name":"小飛象藥局","id":"5932014102","updateTime":"2022/05/06 15:57:32","stock":78,"label":"羅氏家用新冠病毒抗原自我檢測套組","address":"桃園市桃園區慈文路１９２號","remark":"5／6 [21:30] 開賣78份，別再問了。不發放號碼牌，請自行計算人數。即日起本所有調劑確診者之視訊處方，請自保。","phone":"(03)3552771"},"geometry":{"type":"Point","coordinates":[121.3041,25.00907]}},{"type":"Feature","properties":{"name":"鴻發藥師藥局","id":"5932014111","updateTime":"2022/05/06 15:57:32","stock":78,"label":"羅氏家用新冠病毒抗原自我檢測套組","address":"桃園市桃園區大有路５４３號","remark":"實聯快篩:早上09:30發放號碼牌，限當日下午2~4點憑牌購買，逾時不候請見諒","phone":"(03)3582468"},"geometry":{"type":"Point","coordinates":[121.3171,25.0149]}},{"type":"Feature","properties":{"name":"藝文藥局","id":"5932014273","updateTime":"2022/05/06 15:57:32","stock":78,"label":"羅氏家用新冠病毒抗原自我檢測套組","address":"桃園市桃園區大興西路１段１６５號","remark":"快篩實名制，每天16:00開始販售，售完為止。","phone":"(03)3261789"},"geometry":{"type":"Point","coordinates":[121.3049,25.01414]}},{"type":"Feature","properties":{"name":"多多藥局","id":"5932014415","updateTime":"2022/05/06 15:57:32","stock":1,"label":"羅氏家用新冠病毒抗原自我檢測套組","address":"桃園市桃園區南平路１８３號１樓","remark":"實名制快篩販售時段［下午3:00~3:30］","phone":"(03)3162133"},"geometry":{"type":"Point","coordinates":[121.3022,25.01946]}},{"type":"Feature","properties":{"name":"桃園中山藥局","id":"5932014424","updateTime":"2022/05/06 15:57:32","stock":78,"label":"羅氏家用新冠病毒抗原自我檢測套組","address":"桃園市桃園區中山路７０７號","remark":"快篩實名制，每天16:00開始販售，售完為止。","phone":"(03)2207168"},"geometry":{"type":"Point","coordinates":[121.2914,24.99079]}},{"type":"Feature","properties":{"name":"桃鶯藥局","id":"5932014460","updateTime":"2022/05/06 15:57:32","stock":78,"label":"羅氏家用新冠病毒抗原自我檢測套組","address":"桃園市桃園區桃鶯路１０２號","remark":"快篩實名制，每天16:00開始販售，售完為止。","phone":"(03)3675100"},"geometry":{"type":"Point","coordinates":[121.318,24.98516]}},{"type":"Feature","properties":{"name":"佳赫藥局","id":"5932017069","updateTime":"2022/05/06 15:57:32","stock":2,"label":"羅氏家用新冠病毒抗原自我檢測套組","address":"桃園市桃園區龍壽街４８號","remark":"快篩販售時間:15:00-20:00","phone":"(03)3701037"},"geometry":{"type":"Point","coordinates":[121.2694,24.97902]}},{"type":"Feature","properties":{"name":"品一藥局","id":"5932018593","updateTime":"2022/05/06 15:57:32","stock":4,"label":"羅氏家用新冠病毒抗原自我檢測套組","address":"桃園市桃園區建新街７６號","remark":"快篩販賣時間：週一至週五早上9：30；週六下午1：00（星期天休息），會發號碼牌（今天已發完）","phone":"(03)3638510"},"geometry":{"type":"Point","coordinates":[121.3118,24.98261]}},{"type":"Feature","properties":{"name":"大一藥局","id":"5932019045","updateTime":"2022/05/06 15:57:32","stock":21,"label":"羅氏家用新冠病毒抗原自我檢測套組","address":"桃園市桃園區中山路684之一號一樓","remark":"快篩試劑每日下午3點半發號碼牌，4點開賣。星期日停售。","phone":"(03)2171836"},"geometry":{"type":"Point","coordinates":[121.2946,24.9912]}},{"type":"Feature","properties":{"name":"元氣藥局","id":"5932019929","updateTime":"2022/05/06 15:57:32","stock":78,"label":"羅氏家用新冠病毒抗原自我檢測套組","address":"桃園市桃園區民光東路一Ｏ九號","remark":"現場排隊喔!，快篩試劑銷售時間:星期一三四六15:30，星期二五19:00，星期日無，12:00~15:00；18:00~18:30為休息時間","phone":"(03)3332201"},"geometry":{"type":"Point","coordinates":[121.3183,25.0079]}},{"type":"Feature","properties":{"name":"慧中健保藥局","id":"5932021812","updateTime":"2022/05/06 15:57:32","stock":1,"label":"羅氏家用新冠病毒抗原自我檢測套組","address":"桃園市中壢區成章二街１４１號１樓","remark":"每日4:30開始領號碼牌販售快篩試劑","phone":"(03)4556129"},"geometry":{"type":"Point","coordinates":[121.2568,24.98025]}},{"type":"Feature","properties":{"name":"新家福藥局","id":"5932022355","updateTime":"2022/05/06 15:57:32","stock":55,"label":"羅氏家用新冠病毒抗原自我檢測套組","address":"桃園市中壢區福州二街４１９號","remark":"實名制快篩販售時間: 15:30開始至售完為止","phone":"(03)4621658"},"geometry":{"type":"Point","coordinates":[121.2325,24.968]}},{"type":"Feature","properties":{"name":"中壢中正藥局","id":"5932022631","updateTime":"2022/05/06 15:57:32","stock":78,"label":"羅氏家用新冠病毒抗原自我檢測套組","address":"桃園市中壢區中正路３６３、３６５號","remark":"快篩實名制，每天16:00開始販售，售完為止。","phone":"(03)4014100"},"geometry":{"type":"Point","coordinates":[121.2163,24.95532]}},{"type":"Feature","properties":{"name":"福澤健行藥局","id":"5932023058","updateTime":"2022/05/06 15:57:32","stock":13,"label":"羅氏家用新冠病毒抗原自我檢測套組","address":"桃園市中壢區健行路１３９號","remark":"家用快篩販賣時段15:30至售完為止","phone":"(03)4681988"},"geometry":{"type":"Point","coordinates":[121.2275,24.94943]}},{"type":"Feature","properties":{"name":"大順藥局","id":"5932023512","updateTime":"2022/05/06 15:57:32","stock":18,"label":"羅氏家用新冠病毒抗原自我檢測套組","address":"桃園市中壢區興仁路三段５６號","remark":"快篩實名制:早上八點販售，售完為止。","phone":"(03)4654675"},"geometry":{"type":"Point","coordinates":[121.2642,24.95469]}},{"type":"Feature","properties":{"name":"內壢成章藥局","id":"5932023567","updateTime":"2022/05/06 15:57:32","stock":78,"label":"羅氏家用新冠病毒抗原自我檢測套組","address":"桃園市中壢區忠孝路１９８號","remark":"快篩實名制，每天16:00開始販售，售完為止。","phone":"(03)4524123"},"geometry":{"type":"Point","coordinates":[121.2553,24.97719]}},{"type":"Feature","properties":{"name":"樂謙藥師藥局","id":"5932023647","updateTime":"2022/05/06 15:57:32","stock":109,"label":"羅氏家用新冠病毒抗原自我檢測套組","address":"桃園市中壢區龍東路１３４號","remark":"實名快篩每日下午2點、晚上6點 各發39份","phone":"(03)4662775"},"geometry":{"type":"Point","coordinates":[121.2522,24.92929]}},{"type":"Feature","properties":{"name":"祥合藥局","id":"5932023683","updateTime":"2022/05/06 15:57:32","stock":21,"label":"羅氏家用新冠病毒抗原自我檢測套組","address":"桃園市中壢區中北路二段４３１號","remark":"口罩販賣時段:16:00","phone":"(03)2841880"},"geometry":{"type":"Point","coordinates":[121.2321,24.95431]}},{"type":"Feature","properties":{"name":"東興藥局","id":"5932023807","updateTime":"2022/05/06 15:57:32","stock":78,"label":"羅氏家用新冠病毒抗原自我檢測套組","address":"桃園市中壢區中北路２段３９號","remark":"快篩實名制，每天16:00開始販售，售完為止。","phone":"(03)4282611"},"geometry":{"type":"Point","coordinates":[121.224,24.95033]}},{"type":"Feature","properties":{"name":"內壢忠孝藥局","id":"5932023914","updateTime":"2022/05/06 15:57:32","stock":78,"label":"羅氏家用新冠病毒抗原自我檢測套組","address":"桃園市中壢區忠孝路３６號","remark":"快篩實名制，每天16:00開始販售，售完為止。","phone":"(03)4636641"},"geometry":{"type":"Point","coordinates":[121.2566,24.97338]}},{"type":"Feature","properties":{"name":"龍東藥局","id":"5932023932","updateTime":"2022/05/06 15:57:32","stock":78,"label":"羅氏家用新冠病毒抗原自我檢測套組","address":"桃園市中壢區龍東路２０５號","remark":"快篩實名制，每天16:00開始販售，售完為止。","phone":"(03)4383088"},"geometry":{"type":"Point","coordinates":[121.2523,24.92966]}},{"type":"Feature","properties":{"name":"中壢環東藥局","id":"5932024279","updateTime":"2022/05/06 15:57:32","stock":78,"label":"羅氏家用新冠病毒抗原自我檢測套組","address":"桃園市中壢區中山東路２段１９３號","remark":"快篩實名制，每天16:00開始販售，售完為止。","phone":"(03)4562345"},"geometry":{"type":"Point","coordinates":[121.2404,24.95171]}},{"type":"Feature","properties":{"name":"田倉藥局","id":"5932028348","updateTime":"2022/05/06 15:57:32","stock":78,"label":"羅氏家用新冠病毒抗原自我檢測套組","address":"桃園市中壢區龍東路二五八號","remark":"快篩代售時間自下午四點起。現場排隊，賣完為止。","phone":"(03)4379331"},"geometry":{"type":"Point","coordinates":[121.2544,24.93062]}},{"type":"Feature","properties":{"name":"君安藥局","id":"593202A833","updateTime":"2022/05/06 15:57:32","stock":107,"label":"羅氏家用新冠病毒抗原自我檢測套組","address":"桃園市中壢區中北路二段３９０號","remark":"快篩試劑販售時間，週一至週五晚上7點，週六週日早上9點，視現場狀況而定，前15至45分鐘發號碼牌，發完為止","phone":"(03)4685484"},"geometry":{"type":"Point","coordinates":[121.2318,24.95388]}},{"type":"Feature","properties":{"name":"佳佑藥局","id":"593202A931","updateTime":"2022/05/06 15:57:32","stock":9,"label":"羅氏家用新冠病毒抗原自我檢測套組","address":"桃園市中壢區環中東路二四一號","remark":"口罩販賣時段：09:00以後發號碼牌，售完為止","phone":"(03)4356190"},"geometry":{"type":"Point","coordinates":[121.2573,24.96345]}},{"type":"Feature","properties":{"name":"吉壽藥局","id":"5932030080","updateTime":"2022/05/06 15:57:32","stock":78,"label":"羅氏家用新冠病毒抗原自我檢測套組","address":"桃園市大溪區員林路三段４２號","remark":"快篩試劑販賣時段：星期一~五晚上7:00起及星期六、日上午8:30起。由於近日進貨庫存異常，另78份為隔日販售！請諒解。","phone":"(03)3802049"},"geometry":{"type":"Point","coordinates":[121.2648,24.88175]}},{"type":"Feature","properties":{"name":"德安堂藥局","id":"5932031729","updateTime":"2022/05/06 15:57:32","stock":78,"label":"羅氏家用新冠病毒抗原自我檢測套組","address":"桃園市大溪區介壽路８９２號","remark":"口罩販賣時段：14:00 - 16:00","phone":"(03)3808173"},"geometry":{"type":"Point","coordinates":[121.2837,24.90016]}},{"type":"Feature","properties":{"name":"欣康藥局","id":"5932031747","updateTime":"2022/05/06 15:57:32","stock":9,"label":"羅氏家用新冠病毒抗原自我檢測套組","address":"桃園市大溪區員林路２段３９０－６號","remark":"快篩販賣時段：15:30","phone":"(03)3076310"},"geometry":{"type":"Point","coordinates":[121.2677,24.88412]}},{"type":"Feature","properties":{"name":"大溪藥局","id":"5932031881","updateTime":"2022/05/06 15:57:32","stock":78,"label":"羅氏家用新冠病毒抗原自我檢測套組","address":"桃園市大溪區康莊路１６０號","remark":"快篩實名制，每天16:00開始販售，售完為止。","phone":"(03)3873873"},"geometry":{"type":"Point","coordinates":[121.2886,24.8808]}},{"type":"Feature","properties":{"name":"龍泰藥局","id":"5932040246","updateTime":"2022/05/06 15:57:32","stock":2,"label":"羅氏家用新冠病毒抗原自我檢測套組","address":"桃園市楊梅區民族路五段１４７巷２號","remark":"快篩販售時間:早上7:30領號碼牌下午2點至4點領快篩（當日有效）","phone":"(03)4901525"},"geometry":{"type":"Point","coordinates":[121.1736,24.9586]}},{"type":"Feature","properties":{"name":"宜康美藥局","id":"5932043130","updateTime":"2022/05/06 15:57:32","stock":20,"label":"羅氏家用新冠病毒抗原自我檢測套組","address":"桃園市楊梅區環東路４５２號","remark":"快篩販賣時段：早上09:30~10:30（20份）下午15:30~16:30（38份）晚上19:30~20:30（20份）","phone":"(03)4883805"},"geometry":{"type":"Point","coordinates":[121.1571,24.91005]}},{"type":"Feature","properties":{"name":"楊梅藥局","id":"5932043336","updateTime":"2022/05/06 15:57:32","stock":78,"label":"羅氏家用新冠病毒抗原自我檢測套組","address":"桃園市楊梅區大成路１４８、１５０號","remark":"快篩實名制，每天16:00開始販售，售完為止。","phone":"(03)4880776"},"geometry":{"type":"Point","coordinates":[121.1458,24.91148]}},{"type":"Feature","properties":{"name":"康而美聖安藥師藥局","id":"5932051472","updateTime":"2022/05/06 15:57:32","stock":4,"label":"羅氏家用新冠病毒抗原自我檢測套組","address":"桃園市蘆竹區南山路一段二之一號","remark":"暫停止販售","phone":"(03)3228753"},"geometry":{"type":"Point","coordinates":[121.2916,25.04879]}},{"type":"Feature","properties":{"name":"英登藥局","id":"5932052004","updateTime":"2022/05/06 15:57:32","stock":10,"label":"羅氏家用新冠病毒抗原自我檢測套組","address":"桃園市蘆竹區南崁路三四四號","remark":"無","phone":"(03)2124606"},"geometry":{"type":"Point","coordinates":[121.2913,25.05039]}},{"type":"Feature","properties":{"name":"大竹藥師藥局","id":"5932052228","updateTime":"2022/05/06 15:57:32","stock":3,"label":"羅氏家用新冠病毒抗原自我檢測套組","address":"桃園市蘆竹區南竹路五段二五九號","remark":"快篩販賣時段：14:30起可購買至售完為止","phone":"(03)3232508"},"geometry":{"type":"Point","coordinates":[121.2594,25.02454]}},{"type":"Feature","properties":{"name":"大葉藥局","id":"5932052755","updateTime":"2022/05/06 15:57:32","stock":1,"label":"羅氏家用新冠病毒抗原自我檢測套組","address":"桃園市蘆竹區中山路１３２號１樓","remark":"口罩販賣時段：以現場公告為主","phone":"(03)3125347"},"geometry":{"type":"Point","coordinates":[121.2978,25.05699]}},{"type":"Feature","properties":{"name":"柏霖藥局","id":"5932052808","updateTime":"2022/05/06 15:57:32","stock":36,"label":"羅氏家用新冠病毒抗原自我檢測套組","address":"桃園市蘆竹區中正路３５９號２樓","remark":"快篩試劑販賣時間:18:00開始.售完為止","phone":"(03)2120284"},"geometry":{"type":"Point","coordinates":[121.291,25.04902]}},{"type":"Feature","properties":{"name":"悅兒藥局","id":"5932052835","updateTime":"2022/05/06 15:57:32","stock":78,"label":"羅氏家用新冠病毒抗原自我檢測套組","address":"桃園市蘆竹區忠孝西路１８６號","remark":"快篩販賣時段：週一到週日 14:30 開賣","phone":"(03)3126967"},"geometry":{"type":"Point","coordinates":[121.2892,25.04011]}},{"type":"Feature","properties":{"name":"南崁藥局","id":"5932052979","updateTime":"2022/05/06 15:57:32","stock":157,"label":"羅氏家用新冠病毒抗原自我檢測套組","address":"桃園市蘆竹區中正路２５１、２５３、２５５號","remark":"快篩實名制，每天16:00開始販售，售完為止。","phone":"(03)3522022"},"geometry":{"type":"Point","coordinates":[121.2921,25.04695]}},{"type":"Feature","properties":{"name":"桃園大竹藥局","id":"5932053047","updateTime":"2022/05/06 15:57:32","stock":78,"label":"羅氏家用新冠病毒抗原自我檢測套組","address":"桃園市蘆竹區大竹路３６５號","remark":"快篩實名制，每天16:00開始販售，售完為止。","phone":"(03)3235959"},"geometry":{"type":"Point","coordinates":[121.2652,25.01997]}},{"type":"Feature","properties":{"name":"勝峰藥師藥局","id":"5932060177","updateTime":"2022/05/06 15:57:32","stock":27,"label":"羅氏家用新冠病毒抗原自我檢測套組","address":"桃園市大園區菓林里３鄰菓林路５１號１樓","remark":"16:00","phone":"(03)3835588"},"geometry":{"type":"Point","coordinates":[121.2585,25.07499]}},{"type":"Feature","properties":{"name":"園正藥局","id":"5932062484","updateTime":"2022/05/06 15:57:32","stock":78,"label":"羅氏家用新冠病毒抗原自我檢測套組","address":"桃園市大園區中正東路７５號","remark":"快篩實名制，每天16:00開始販售，售完為止。","phone":"(03)3865250"},"geometry":{"type":"Point","coordinates":[121.2003,25.06315]}},{"type":"Feature","properties":{"name":"誠安生活藥局","id":"5932076791","updateTime":"2022/05/06 15:57:32","stock":36,"label":"羅氏家用新冠病毒抗原自我檢測套組","address":"桃園市龜山區文化七路７９之２號","remark":"實名制快篩試劑每日下午三點啟售。5／1周日不販售","phone":"(03)3271997"},"geometry":{"type":"Point","coordinates":[121.3635,25.05166]}},{"type":"Feature","properties":{"name":"帕米爾藥局","id":"5932076844","updateTime":"2022/05/06 15:57:32","stock":7,"label":"羅氏家用新冠病毒抗原自我檢測套組","address":"桃園市龜山區萬壽路二段９９１號","remark":"星期一~六:家用快篩試劑販賣時段：14:30~售完。不發號碼牌，請直接排隊購買。","phone":"(03)3295522"},"geometry":{"type":"Point","coordinates":[121.3369,24.99464]}},{"type":"Feature","properties":{"name":"桃園龜山藥局","id":"5932077056","updateTime":"2022/05/06 15:57:32","stock":78,"label":"羅氏家用新冠病毒抗原自我檢測套組","address":"桃園市龜山區萬壽路二段８９６號","remark":"快篩實名制，每天16:00開始販售，售完為止。","phone":"(03)3203312"},"geometry":{"type":"Point","coordinates":[121.3394,24.99586]}},{"type":"Feature","properties":{"name":"明昌藥局","id":"5932077270","updateTime":"2022/05/06 15:57:32","stock":2,"label":"羅氏家用新冠病毒抗原自我檢測套組","address":"桃園市龜山區中興里萬壽路二段１１９１－６號","remark":"無","phone":"(03)3501205"},"geometry":{"type":"Point","coordinates":[121.3318,24.99291]}},{"type":"Feature","properties":{"name":"南崁南祥藥局","id":"5932077592","updateTime":"2022/05/06 15:57:32","stock":78,"label":"羅氏家用新冠病毒抗原自我檢測套組","address":"桃園市龜山區南祥路４６號","remark":"快篩實名制，每天16:00開始販售，售完為止。","phone":"(03)2227733"},"geometry":{"type":"Point","coordinates":[121.2975,25.04633]}},{"type":"Feature","properties":{"name":"文興藥局","id":"5932077627","updateTime":"2022/05/06 15:57:32","stock":78,"label":"羅氏家用新冠病毒抗原自我檢測套組","address":"桃園市龜山區復興一路１０２號１、２、３樓","remark":"快篩實名制，每天16:00開始販售，售完為止。","phone":"(03)3285330"},"geometry":{"type":"Point","coordinates":[121.368,25.0592]}},{"type":"Feature","properties":{"name":"日鴻藥局","id":"5932080455","updateTime":"2022/05/06 15:57:32","stock":22,"label":"羅氏家用新冠病毒抗原自我檢測套組","address":"桃園市八德區義勇街１７５號","remark":"口罩販賣時段：早上9:00 發號碼牌下午4:00~6:00領取","phone":"(03)3763304"},"geometry":{"type":"Point","coordinates":[121.3065,24.96335]}},{"type":"Feature","properties":{"name":"上方藥局","id":"5932083509","updateTime":"2022/05/06 15:57:32","stock":5,"label":"羅氏家用新冠病毒抗原自我檢測套組","address":"桃園市八德區廣褔路一八八號","remark":"販賣快篩:於午間12:30~1:30發號碼牌，開賣時間下午3:00~4:30，賣完為止","phone":"(03)3635902"},"geometry":{"type":"Point","coordinates":[121.279,24.96204]}},{"type":"Feature","properties":{"name":"保健藥局","id":"5932083670","updateTime":"2022/05/06 15:57:32","stock":202,"label":"羅氏家用新冠病毒抗原自我檢測套組","address":"桃園市八德區介壽路一段８３３號２樓","remark":"無","phone":"(03)3669486"},"geometry":{"type":"Point","coordinates":[121.3,24.96168]}},{"type":"Feature","properties":{"name":"晨鴻藥師藥局","id":"5932083974","updateTime":"2022/05/06 15:57:32","stock":79,"label":"羅氏家用新冠病毒抗原自我檢測套組","address":"桃園市八德區桃鶯路７號１樓","remark":"快篩為早上8:30跟晚上6:00領取號碼牌，因有送貨時間及短少的因素，所以快篩地圖數量參考就好，請勿再打電話詢問 謝謝","phone":"(03)3764299"},"geometry":{"type":"Point","coordinates":[121.3265,24.97179]}},{"type":"Feature","properties":{"name":"美康健保藥局","id":"5932084793","updateTime":"2022/05/06 15:57:32","stock":78,"label":"羅氏家用新冠病毒抗原自我檢測套組","address":"桃園市八德區桃鶯路９１號１、２樓","remark":"無","phone":"(03)3613624"},"geometry":{"type":"Point","coordinates":[121.328,24.97036]}},{"type":"Feature","properties":{"name":"瑞豐藥局","id":"5932084800","updateTime":"2022/05/06 15:57:32","stock":78,"label":"羅氏家用新冠病毒抗原自我檢測套組","address":"桃園市八德區興豐路５７７號１樓","remark":"快篩實名制，每天16:00開始販售，售完為止。","phone":"(03)3681456"},"geometry":{"type":"Point","coordinates":[121.2935,24.93075]}},{"type":"Feature","properties":{"name":"阿爾富山藥局","id":"5932084828","updateTime":"2022/05/06 15:57:32","stock":72,"label":"羅氏家用新冠病毒抗原自我檢測套組","address":"桃園市八德區桃鶯路４號１樓","remark":"本藥局實名制快篩於每日晚間7點以實際到貨數量發放，唯保留可視現場排隊人數額滿情況.酌情提前發號碼牌並受理購買!","phone":"(03)3763350"},"geometry":{"type":"Point","coordinates":[121.3261,24.97167]}},{"type":"Feature","properties":{"name":"阿寶藥局","id":"5932084864","updateTime":"2022/05/06 15:57:32","stock":48,"label":"羅氏家用新冠病毒抗原自我檢測套組","address":"桃園市八德區東勇一路６號","remark":"實名制快篩詳細公告請參閱阿寶藥局官方臉書","phone":"(03)3750060"},"geometry":{"type":"Point","coordinates":[121.3064,24.96452]}},{"type":"Feature","properties":{"name":"龍星藥局","id":"5932099383","updateTime":"2022/05/06 15:57:32","stock":78,"label":"羅氏家用新冠病毒抗原自我檢測套組","address":"桃園市龍潭區中正路二八四號二樓","remark":"無","phone":"(03)4707390"},"geometry":{"type":"Point","coordinates":[121.2175,24.86201]}},{"type":"Feature","properties":{"name":"大心聯合藥局","id":"5932099927","updateTime":"2022/05/06 15:57:32","stock":5,"label":"羅氏家用新冠病毒抗原自我檢測套組","address":"桃園市龍潭區中興路３９０號","remark":"快篩實名制：週一至週日下午15:30開始販售","phone":"(03)4897998"},"geometry":{"type":"Point","coordinates":[121.2313,24.87337]}},{"type":"Feature","properties":{"name":"龍潭北龍藥局","id":"5932099963","updateTime":"2022/05/06 15:57:32","stock":78,"label":"羅氏家用新冠病毒抗原自我檢測套組","address":"桃園市龍潭區北龍路２７５號","remark":"快篩實名制，每天16:00開始販售，售完為止。","phone":"(03)4893123"},"geometry":{"type":"Point","coordinates":[121.2174,24.8681]}},{"type":"Feature","properties":{"name":"德聯藥師藥局","id":"5932100185","updateTime":"2022/05/06 15:57:32","stock":1,"label":"羅氏家用新冠病毒抗原自我檢測套組","address":"桃園市平鎮區龍南路３１號","remark":"快篩 5月6日 下午2點開始賣","phone":"(03)4603613"},"geometry":{"type":"Point","coordinates":[121.2452,24.92473]}},{"type":"Feature","properties":{"name":"福澤中豐藥局","id":"5932100210","updateTime":"2022/05/06 15:57:32","stock":2,"label":"羅氏家用新冠病毒抗原自我檢測套組","address":"桃園市平鎮區中豐路３４５號","remark":"家用快篩販賣時段15:30至售完為止","phone":"(03)4283805"},"geometry":{"type":"Point","coordinates":[121.2116,24.91034]}},{"type":"Feature","properties":{"name":"世新藥局","id":"5932100354","updateTime":"2022/05/06 15:57:32","stock":1,"label":"羅氏家用新冠病毒抗原自我檢測套組","address":"桃園市平鎮區廣泰路７５之２號","remark":"實名制快篩13:30販售","phone":"(03)4941234"},"geometry":{"type":"Point","coordinates":[121.2052,24.94629]}},{"type":"Feature","properties":{"name":"福澤民族藥局","id":"5932100809","updateTime":"2022/05/06 15:57:32","stock":18,"label":"羅氏家用新冠病毒抗原自我檢測套組","address":"桃園市平鎮區民族路二段１３９號１樓","remark":"家用快篩販賣時段15:30至售完為止","phone":"(03)4014747"},"geometry":{"type":"Point","coordinates":[121.2048,24.95706]}},{"type":"Feature","properties":{"name":"平鎮中豐藥局","id":"5932101226","updateTime":"2022/05/06 15:57:32","stock":78,"label":"羅氏家用新冠病毒抗原自我檢測套組","address":"桃園市平鎮區中豐路山頂段１６４號","remark":"快篩實名制，每天16:00開始販售，售完為止。","phone":"(03)4690939"},"geometry":{"type":"Point","coordinates":[121.2109,24.90035]}},{"type":"Feature","properties":{"name":"明德藥局","id":"5933010064","updateTime":"2022/05/06 15:57:32","stock":3,"label":"羅氏家用新冠病毒抗原自我檢測套組","address":"新竹縣關西鎮中山路１８號","remark":"無","phone":"(03)5874335"},"geometry":{"type":"Point","coordinates":[121.1778,24.79152]}},{"type":"Feature","properties":{"name":"安東藥師藥局","id":"5933011258","updateTime":"2022/05/06 15:57:32","stock":78,"label":"羅氏家用新冠病毒抗原自我檢測套組","address":"新竹縣關西鎮中山路６２號","remark":"口罩販賣時段：星期一至六08:00-21:00、星期日08:00-17:00","phone":"(03)5872385"},"geometry":{"type":"Point","coordinates":[121.1766,24.79147]}},{"type":"Feature","properties":{"name":"關西藥局","id":"5933011267","updateTime":"2022/05/06 15:57:32","stock":77,"label":"羅氏家用新冠病毒抗原自我檢測套組","address":"新竹縣關西鎮中山路６８號","remark":"快篩實名制，每天16:00開始販售，售完為止。","phone":"(03)5171121"},"geometry":{"type":"Point","coordinates":[121.1764,24.79148]}},{"type":"Feature","properties":{"name":"竹東朝陽藥局","id":"5933031769","updateTime":"2022/05/06 15:57:32","stock":78,"label":"羅氏家用新冠病毒抗原自我檢測套組","address":"新竹縣竹東鎮朝陽路１號１、２樓","remark":"口罩販售時間：14:00 - 16:00","phone":"(03)5111166"},"geometry":{"type":"Point","coordinates":[121.0852,24.74199]}},{"type":"Feature","properties":{"name":"東林藥局","id":"5933031885","updateTime":"2022/05/06 15:57:32","stock":78,"label":"羅氏家用新冠病毒抗原自我檢測套組","address":"新竹縣竹東鎮東林路８０號","remark":"快篩實名制，每天16:00開始販售，售完為止。","phone":"(03)5961321"},"geometry":{"type":"Point","coordinates":[121.0913,24.73683]}},{"type":"Feature","properties":{"name":"中一藥局","id":"5933053041","updateTime":"2022/05/06 15:57:32","stock":78,"label":"羅氏家用新冠病毒抗原自我檢測套組","address":"新竹縣竹北市文興路一段２４２號１樓","remark":"更新:快篩販售時間下午16:00","phone":"(03)6670827"},"geometry":{"type":"Point","coordinates":[121.0287,24.81018]}},{"type":"Feature","properties":{"name":"成功藥局","id":"5933053292","updateTime":"2022/05/06 15:57:32","stock":78,"label":"羅氏家用新冠病毒抗原自我檢測套組","address":"新竹縣竹北市成功三路６９號","remark":"快篩實名制，每天16:00開始販售，售完為止。","phone":"(03)5509117"},"geometry":{"type":"Point","coordinates":[121.0239,24.81934]}},{"type":"Feature","properties":{"name":"六家藥局","id":"5933053550","updateTime":"2022/05/06 15:57:32","stock":78,"label":"羅氏家用新冠病毒抗原自我檢測套組","address":"新竹縣竹北市六家一路一段１６３號","remark":"快篩實名制，每天16:00開始販售，售完為止。","phone":"(03)6578456"},"geometry":{"type":"Point","coordinates":[121.0289,24.80958]}},{"type":"Feature","properties":{"name":"中華藥局","id":"5933053596","updateTime":"2022/05/06 15:57:32","stock":78,"label":"羅氏家用新冠病毒抗原自我檢測套組","address":"新竹縣竹北市中華路２２６號１、２樓","remark":"快篩實名制，每天16:00開始販售，售完為止。","phone":"(03)5513031"},"geometry":{"type":"Point","coordinates":[121.0028,24.83118]}},{"type":"Feature","properties":{"name":"竹北光明藥局","id":"5933053603","updateTime":"2022/05/06 15:57:32","stock":78,"label":"羅氏家用新冠病毒抗原自我檢測套組","address":"新竹縣竹北市光明一路１３７號","remark":"快篩實名制，每天16:00開始販售，售完為止。","phone":"(03)5584545"},"geometry":{"type":"Point","coordinates":[121.0157,24.83023]}},{"type":"Feature","properties":{"name":"湖山藥局","id":"5933061712","updateTime":"2022/05/06 15:57:32","stock":78,"label":"羅氏家用新冠病毒抗原自我檢測套組","address":"新竹縣湖口鄉中山路二段１２７號","remark":"快篩實名制，每天16:00開始販售，售完為止。","phone":"(03)5904999"},"geometry":{"type":"Point","coordinates":[121.0439,24.90198]}},{"type":"Feature","properties":{"name":"宜蘭藥局","id":"5934012473","updateTime":"2022/05/06 15:57:32","stock":78,"label":"羅氏家用新冠病毒抗原自我檢測套組","address":"宜蘭縣宜蘭市泰山路３６號","remark":"快篩實名制，每天16:00開始販售，售完為止。","phone":"(03)9365168"},"geometry":{"type":"Point","coordinates":[121.7485,24.75524]}},{"type":"Feature","properties":{"name":"公正藥局","id":"5934022175","updateTime":"2022/05/06 15:57:32","stock":79,"label":"羅氏家用新冠病毒抗原自我檢測套組","address":"宜蘭縣羅東鎮興東路１３７、１３９號","remark":"快篩實名制，每天16:00開始販售，售完為止。","phone":"(03)9560543"},"geometry":{"type":"Point","coordinates":[121.769,24.6802]}},{"type":"Feature","properties":{"name":"佳禾藥局","id":"5935011738","updateTime":"2022/05/06 15:57:32","stock":158,"label":"羅氏家用新冠病毒抗原自我檢測套組","address":"苗栗縣苗栗市青苗里建台街7號","remark":"快篩試劑7：30發號碼牌8：00開始販賣，販賣時段：營業時間至售完為止","phone":"(037)373041"},"geometry":{"type":"Point","coordinates":[120.821,24.55742]}},{"type":"Feature","properties":{"name":"芳鄰國際連鎖藥局","id":"5935011783","updateTime":"2022/05/06 15:57:32","stock":11,"label":"羅氏家用新冠病毒抗原自我檢測套組","address":"苗栗縣苗栗市中山路５６７號","remark":"快篩販賣時段：14:00開始發放號碼牌 16:00-18:00領取快篩","phone":"(037)330580"},"geometry":{"type":"Point","coordinates":[120.8201,24.55826]}},{"type":"Feature","properties":{"name":"苗栗藥局","id":"5935012413","updateTime":"2022/05/06 15:57:32","stock":78,"label":"羅氏家用新冠病毒抗原自我檢測套組","address":"苗栗縣苗栗市光復路５５號","remark":"快篩實名制，每天16:00開始販售，售完為止。","phone":"(037)360789"},"geometry":{"type":"Point","coordinates":[120.8165,24.5532]}},{"type":"Feature","properties":{"name":"苑裡藥局","id":"5935021430","updateTime":"2022/05/06 15:57:32","stock":78,"label":"羅氏家用新冠病毒抗原自我檢測套組","address":"苗栗縣苑裡鎮為公路３２－１號","remark":"快篩實名制，每天16:00開始販售，售完為止。","phone":"(037)851331"},"geometry":{"type":"Point","coordinates":[120.6541,24.44247]}},{"type":"Feature","properties":{"name":"立安藥局","id":"5935030171","updateTime":"2022/05/06 15:57:32","stock":1,"label":"羅氏家用新冠病毒抗原自我檢測套組","address":"苗栗縣通霄鎮信義路１０７號","remark":"快篩實名制 週一到週六下午15:00開始販售  售完為止","phone":"(037)760100"},"geometry":{"type":"Point","coordinates":[120.6804,24.48877]}},{"type":"Feature","properties":{"name":"通霄藥局","id":"5935030180","updateTime":"2022/05/06 15:57:32","stock":75,"label":"羅氏家用新冠病毒抗原自我檢測套組","address":"苗栗縣通霄鎮中山路１３１號","remark":"快篩實名制，每天16:00開始販售，售完為止。","phone":"(037)755155"},"geometry":{"type":"Point","coordinates":[120.678,24.48903]}},{"type":"Feature","properties":{"name":"合康連鎖藥局","id":"5935041914","updateTime":"2022/05/06 15:57:32","stock":78,"label":"羅氏家用新冠病毒抗原自我檢測套組","address":"苗栗縣竹南鎮博愛街２７０號","remark":"販售快篩時間為下午17:00開始販售","phone":"(037)474987"},"geometry":{"type":"Point","coordinates":[120.8725,24.68724]}},{"type":"Feature","properties":{"name":"好康健保藥局","id":"5935042108","updateTime":"2022/05/06 15:57:32","stock":14,"label":"羅氏家用新冠病毒抗原自我檢測套組","address":"苗栗縣竹南鎮科專七路２１９號１樓","remark":"快篩販售時間：下午3：00","phone":"(037)680877"},"geometry":{"type":"Point","coordinates":[120.9025,24.70536]}},{"type":"Feature","properties":{"name":"鴻輝大藥局","id":"5935060053","updateTime":"2022/05/06 15:57:32","stock":1,"label":"羅氏家用新冠病毒抗原自我檢測套組","address":"苗栗縣後龍鎮北龍里中華路６４－１號","remark":"AM07:50~PM10:00","phone":"(037)721952"},"geometry":{"type":"Point","coordinates":[120.7879,24.61557]}},{"type":"Feature","properties":{"name":"後龍藥局","id":"5935061452","updateTime":"2022/05/06 15:57:32","stock":78,"label":"羅氏家用新冠病毒抗原自我檢測套組","address":"苗栗縣後龍鎮中山路２０９號１樓","remark":"快篩實名制，每天16:00開始販售，售完為止。","phone":"(037)723660"},"geometry":{"type":"Point","coordinates":[120.7931,24.6127]}},{"type":"Feature","properties":{"name":"原全成藥局","id":"5936150341","updateTime":"2022/05/06 15:57:32","stock":78,"label":"羅氏家用新冠病毒抗原自我檢測套組","address":"臺中市烏日區中山路一段３８７號１樓","remark":"每日＜下午４點＞!!＜下午４點＞!!＜下午４點＞!!開始發號碼牌販售，售完為止！！","phone":"(04)23361818"},"geometry":{"type":"Point","coordinates":[120.6388,24.10773]}},{"type":"Feature","properties":{"name":"祥暘藥局","id":"5936180152","updateTime":"2022/05/06 15:57:32","stock":78,"label":"羅氏家用新冠病毒抗原自我檢測套組","address":"臺中市霧峰區中正路１１６２號","remark":"快篩實名制，每天16:00開始販售，售完為止。","phone":"(04)23391346"},"geometry":{"type":"Point","coordinates":[120.6996,24.07068]}},{"type":"Feature","properties":{"name":"中美藥師藥局","id":"5936190676","updateTime":"2022/05/06 15:57:32","stock":44,"label":"羅氏家用新冠病毒抗原自我檢測套組","address":"臺中市太平區中山路３段８５號","remark":"無","phone":"(04)22778238"},"geometry":{"type":"Point","coordinates":[120.7173,24.14861]}},{"type":"Feature","properties":{"name":"樹德大藥局","id":"5936192134","updateTime":"2022/05/06 15:57:32","stock":49,"label":"羅氏家用新冠病毒抗原自我檢測套組","address":"臺中市太平區樹德路１０２號１樓","remark":"下午3點開始領號碼牌，分流領取，請勿依賴網站庫存","phone":"(04)23981782"},"geometry":{"type":"Point","coordinates":[120.7115,24.15386]}},{"type":"Feature","properties":{"name":"聯生中西健保藥局","id":"593620B138","updateTime":"2022/05/06 15:57:32","stock":47,"label":"羅氏家用新冠病毒抗原自我檢測套組","address":"臺中市大里區現岱路１５８巷１１號","remark":"早上八點半領號碼牌下午四點到六點領口罩W6W日早七點","phone":"(04)24834058"},"geometry":{"type":"Point","coordinates":[120.6919,24.10295]}},{"type":"Feature","properties":{"name":"大埔藥局","id":"5937013436","updateTime":"2022/05/06 15:57:32","stock":78,"label":"羅氏家用新冠病毒抗原自我檢測套組","address":"彰化縣彰化市大埔路４０６、４０８、４１０、４１２號","remark":"快篩實名制，每天16:00開始販售，售完為止。","phone":"(04)7117511"},"geometry":{"type":"Point","coordinates":[120.5439,24.06298]}},{"type":"Feature","properties":{"name":"芳澤藥局","id":"5937013552","updateTime":"2022/05/06 15:57:32","stock":49,"label":"羅氏家用新冠病毒抗原自我檢測套組","address":"彰化縣彰化市中山路三段４３４號","remark":"快篩實名制-週一至週五下午3點開始販售，星期六日休息","phone":"(04)7380381"},"geometry":{"type":"Point","coordinates":[120.5658,24.08861]}},{"type":"Feature","properties":{"name":"彰化藥局","id":"5937013570","updateTime":"2022/05/06 15:57:32","stock":78,"label":"羅氏家用新冠病毒抗原自我檢測套組","address":"彰化縣彰化市永安街２７８、２８０號","remark":"快篩實名制，每天16:00開始販售，售完為止。","phone":"(04)7287877"},"geometry":{"type":"Point","coordinates":[120.5438,24.08977]}},{"type":"Feature","properties":{"name":"友誼藥局自強店","id":"5937013703","updateTime":"2022/05/06 15:57:32","stock":61,"label":"羅氏家用新冠病毒抗原自我檢測套組","address":"彰化縣彰化市自強路４６號","remark":"5／6快篩販售時間15:00~16:00以現場量為主，免費領取各大醫院連續處方簽，診所、衛生所處方簽，歡迎諮詢友誼藥局","phone":"(04)7233471"},"geometry":{"type":"Point","coordinates":[120.5393,24.08961]}},{"type":"Feature","properties":{"name":"寶生藥局","id":"5937013712","updateTime":"2022/05/06 15:57:32","stock":51,"label":"羅氏家用新冠病毒抗原自我檢測套組","address":"彰化縣彰化市中山路一段５５６巷２３之１２８號１樓","remark":"六、日因人力不足無法發送快篩 每日下午一點～下午五點","phone":"(04)7113037"},"geometry":{"type":"Point","coordinates":[120.5404,24.06564]}},{"type":"Feature","properties":{"name":"佳漾藥局","id":"5937013730","updateTime":"2022/05/06 15:57:32","stock":78,"label":"羅氏家用新冠病毒抗原自我檢測套組","address":"彰化縣彰化市延平路５８８號１樓","remark":"實名制快篩販售時間為下午5點，週六，週日及國定假日藥局休息．","phone":"(04)7135518"},"geometry":{"type":"Point","coordinates":[120.5374,24.06301]}},{"type":"Feature","properties":{"name":"民族藥局","id":"5937013767","updateTime":"2022/05/06 15:57:32","stock":78,"label":"羅氏家用新冠病毒抗原自我檢測套組","address":"彰化縣彰化市民族路２１２號１樓","remark":"快篩實名制，每天16:00開始販售，售完為止。","phone":"(04)7261221"},"geometry":{"type":"Point","coordinates":[120.5393,24.071]}},{"type":"Feature","properties":{"name":"大樹鹿港藥局","id":"5937021849","updateTime":"2022/05/06 15:57:32","stock":78,"label":"羅氏家用新冠病毒抗原自我檢測套組","address":"彰化縣鹿港鎮中正路１９３號","remark":"快篩實名制，每天16:00開始販售，售完為止。","phone":"(04)7772226"},"geometry":{"type":"Point","coordinates":[120.4405,24.05491]}},{"type":"Feature","properties":{"name":"大樹和美藥局","id":"5937031747","updateTime":"2022/05/06 15:57:32","stock":78,"label":"羅氏家用新冠病毒抗原自我檢測套組","address":"彰化縣和美鎮道周路５０１號","remark":"快篩實名制，每天16:00開始販售，售完為止。","phone":"(04)7550090"},"geometry":{"type":"Point","coordinates":[120.494,24.10896]}},{"type":"Feature","properties":{"name":"惠生大藥局","id":"5937041421","updateTime":"2022/05/06 15:57:32","stock":1,"label":"羅氏家用新冠病毒抗原自我檢測套組","address":"彰化縣北斗鎮西德里中華路２９１號","remark":"販售時間 : 週一 ~ 週日，每日下午1:50~2點後至販售完畢","phone":"(04)8874041"},"geometry":{"type":"Point","coordinates":[120.521,23.87288]}},{"type":"Feature","properties":{"name":"醫聯藥師藥局","id":"5937052264","updateTime":"2022/05/06 15:57:32","stock":6,"label":"羅氏家用新冠病毒抗原自我檢測套組","address":"彰化縣員林市三條里員東路二段４１０號１樓","remark":"無","phone":"(04)8360617"},"geometry":{"type":"Point","coordinates":[120.5811,23.95898]}},{"type":"Feature","properties":{"name":"大樹三民藥局","id":"5937052335","updateTime":"2022/05/06 15:57:32","stock":78,"label":"羅氏家用新冠病毒抗原自我檢測套組","address":"彰化縣員林市三民東街３５６號","remark":"快篩實名制，每天16:00開始販售，售完為止。","phone":"(04)8372837"},"geometry":{"type":"Point","coordinates":[120.5825,23.96065]}},{"type":"Feature","properties":{"name":"莒光藥局","id":"5937052479","updateTime":"2022/05/06 15:57:32","stock":78,"label":"羅氏家用新冠病毒抗原自我檢測套組","address":"彰化縣員林市莒光路３１６號１樓","remark":"快篩實名制，每天16:00開始販售，售完為止。","phone":"(04)8361388"},"geometry":{"type":"Point","coordinates":[120.5669,23.95942]}},{"type":"Feature","properties":{"name":"大樹員林藥局","id":"5937052488","updateTime":"2022/05/06 15:57:32","stock":78,"label":"羅氏家用新冠病毒抗原自我檢測套組","address":"彰化縣員林市大同路二段２０７號","remark":"快篩實名制，每天16:00開始販售，售完為止。","phone":"(04)8331353"},"geometry":{"type":"Point","coordinates":[120.5745,23.96891]}},{"type":"Feature","properties":{"name":"佑全員林中正藥局","id":"5937052504","updateTime":"2022/05/06 15:57:32","stock":3,"label":"羅氏家用新冠病毒抗原自我檢測套組","address":"彰化縣員林市中正路１３５，１３７號１樓","remark":"無","phone":"(04)8368669"},"geometry":{"type":"Point","coordinates":[120.5714,23.96324]}},{"type":"Feature","properties":{"name":"大發藥局","id":"5937061503","updateTime":"2022/05/06 15:57:32","stock":78,"label":"羅氏家用新冠病毒抗原自我檢測套組","address":"彰化縣溪湖鎮大突里大發路８９號","remark":"每日8點45分快篩開賣售完為止（單日為78份），星期日公休","phone":"(04)8822180"},"geometry":{"type":"Point","coordinates":[120.4754,23.96356]}},{"type":"Feature","properties":{"name":"東環藥局","id":"5937061718","updateTime":"2022/05/06 15:57:32","stock":78,"label":"羅氏家用新冠病毒抗原自我檢測套組","address":"彰化縣溪湖鎮湖東街８１巷７０－３、７０－４、７０－５號","remark":"快篩實名制，每天16:00開始販售，售完為止。","phone":"(04)8820001"},"geometry":{"type":"Point","coordinates":[120.4833,23.95861]}},{"type":"Feature","properties":{"name":"平和藥局","id":"5937061736","updateTime":"2022/05/06 15:57:32","stock":78,"label":"羅氏家用新冠病毒抗原自我檢測套組","address":"彰化縣溪湖鎮彰水路三段２７７、２７９號１樓","remark":"快篩實名制，每天16:00開始販售，售完為止。","phone":"(04)8816880"},"geometry":{"type":"Point","coordinates":[120.4801,23.95959]}},{"type":"Feature","properties":{"name":"田中藥局","id":"5937071474","updateTime":"2022/05/06 15:57:32","stock":78,"label":"羅氏家用新冠病毒抗原自我檢測套組","address":"彰化縣田中鎮新生街１５０巷２號","remark":"快篩實名制，每天16:00開始販售，售完為止。","phone":"(04)8761988"},"geometry":{"type":"Point","coordinates":[120.5862,23.8621]}},{"type":"Feature","properties":{"name":"二林藥局","id":"5937081596","updateTime":"2022/05/06 15:57:32","stock":78,"label":"羅氏家用新冠病毒抗原自我檢測套組","address":"彰化縣二林鎮斗苑路五段３９號","remark":"快篩實名制，每天16:00開始販售，售完為止。","phone":"(04)8950010"},"geometry":{"type":"Point","coordinates":[120.3709,23.89951]}},{"type":"Feature","properties":{"name":"信義藥局","id":"5937101271","updateTime":"2022/05/06 15:57:32","stock":78,"label":"羅氏家用新冠病毒抗原自我檢測套組","address":"彰化縣伸港鄉新港村信義路７１號","remark":"快篩實名制，每天16:00開始販售，售完為止。","phone":"(04)7982232"},"geometry":{"type":"Point","coordinates":[120.4859,24.14681]}},{"type":"Feature","properties":{"name":"彰水藥局","id":"5937121317","updateTime":"2022/05/06 15:57:32","stock":78,"label":"羅氏家用新冠病毒抗原自我檢測套組","address":"彰化縣秀水鄉彰水路二段４２５、４２７、４２９號１樓","remark":"快篩實名制，每天16:00開始販售，售完為止。","phone":"(04)7685880"},"geometry":{"type":"Point","coordinates":[120.4943,24.02791]}},{"type":"Feature","properties":{"name":"淑惠藥局","id":"5937170034","updateTime":"2022/05/06 15:57:32","stock":61,"label":"羅氏家用新冠病毒抗原自我檢測套組","address":"彰化縣埔心鄉亙北村員鹿路一段２４４號","remark":"星期一~星期六16:00-18:00（2小時販售快篩試劑），星期日：休","phone":"(04)8297798"},"geometry":{"type":"Point","coordinates":[120.5574,23.95515]}},{"type":"Feature","properties":{"name":"佳恩藥局","id":"5937181279","updateTime":"2022/05/06 15:57:32","stock":38,"label":"羅氏家用新冠病毒抗原自我檢測套組","address":"彰化縣永靖鄉永西村瑚璉路３０２號","remark":"快篩實名制 :電話預約制，當日早上9點開始預約（已額滿）","phone":"(04)8235753"},"geometry":{"type":"Point","coordinates":[120.547,23.92421]}},{"type":"Feature","properties":{"name":"永靖藥局","id":"5937181304","updateTime":"2022/05/06 15:57:32","stock":78,"label":"羅氏家用新冠病毒抗原自我檢測套組","address":"彰化縣永靖鄉瑚璉路１１６號","remark":"快篩實名制，每天16:00開始販售，售完為止。","phone":"(04)8230220"},"geometry":{"type":"Point","coordinates":[120.5505,23.92624]}},{"type":"Feature","properties":{"name":"社頭藥局","id":"5937191300","updateTime":"2022/05/06 15:57:32","stock":78,"label":"羅氏家用新冠病毒抗原自我檢測套組","address":"彰化縣社頭鄉社斗路一段３７３號","remark":"快篩實名制，每天16:00開始販售，售完為止。","phone":"(04)8720030"},"geometry":{"type":"Point","coordinates":[120.5846,23.89651]}},{"type":"Feature","properties":{"name":"長春藥局","id":"5937201061","updateTime":"2022/05/06 15:57:32","stock":13,"label":"羅氏家用新冠病毒抗原自我檢測套組","address":"彰化縣二水鄉文化村光文路１０３號","remark":"早上8:00發放號碼牌，13:00開始販售至17:00止","phone":"(04)8795289"},"geometry":{"type":"Point","coordinates":[120.6167,23.81189]}},{"type":"Feature","properties":{"name":"弘昌藥局","id":"5938010420","updateTime":"2022/05/06 15:57:32","stock":1,"label":"羅氏家用新冠病毒抗原自我檢測套組","address":"南投縣南投市三興里南崗一路８５號","remark":"週一至週六早防疫家用快篩試劑 早上發號碼.下午3點至4點領快篩.超過4點視同放棄.","phone":"(049)2228902"},"geometry":{"type":"Point","coordinates":[120.6834,23.90096]}},{"type":"Feature","properties":{"name":"南投丁丁藥局","id":"5938011810","updateTime":"2022/05/06 15:57:32","stock":11,"label":"羅氏家用新冠病毒抗原自我檢測套組","address":"南投縣南投市三和里三和二路１０號","remark":"健保快篩早上8點開賣","phone":"(049)2245977"},"geometry":{"type":"Point","coordinates":[120.69,23.90461]}},{"type":"Feature","properties":{"name":"彰南藥局","id":"5938011909","updateTime":"2022/05/06 15:57:32","stock":78,"label":"羅氏家用新冠病毒抗原自我檢測套組","address":"南投縣南投市彰南路二段２１號","remark":"無","phone":"(049)2230005"},"geometry":{"type":"Point","coordinates":[120.6845,23.90847]}},{"type":"Feature","properties":{"name":"大樹埔里藥局","id":"5938022064","updateTime":"2022/05/06 15:57:32","stock":78,"label":"羅氏家用新冠病毒抗原自我檢測套組","address":"南投縣埔里鎮中正路４３８號","remark":"快篩實名制，每天16:00開始販售，售完為止。","phone":"(049)2980805"},"geometry":{"type":"Point","coordinates":[120.9632,23.97263]}},{"type":"Feature","properties":{"name":"百安大藥局","id":"5938030717","updateTime":"2022/05/06 15:57:32","stock":49,"label":"羅氏家用新冠病毒抗原自我檢測套組","address":"南投縣草屯鎮中正路７０９號","remark":"每日下午3:50發放領取牌 下午4:00開賣","phone":"(049)2305542"},"geometry":{"type":"Point","coordinates":[120.6843,23.9805]}},{"type":"Feature","properties":{"name":"草屯藥局","id":"5938032480","updateTime":"2022/05/06 15:57:32","stock":78,"label":"羅氏家用新冠病毒抗原自我檢測套組","address":"南投縣草屯鎮碧山路１４５、１４７號","remark":"快篩實名制，每天16:00開始販售，售完為止。","phone":"(049)2362992"},"geometry":{"type":"Point","coordinates":[120.6834,23.9778]}},{"type":"Feature","properties":{"name":"祥陽藥局","id":"5938032560","updateTime":"2022/05/06 15:57:32","stock":78,"label":"羅氏家用新冠病毒抗原自我檢測套組","address":"南投縣草屯鎮中正路８２２、８２４號","remark":"快篩實名制，每天16:00開始販售，售完為止。","phone":"(049)2353393"},"geometry":{"type":"Point","coordinates":[120.6854,23.98276]}},{"type":"Feature","properties":{"name":"大明藥局","id":"5938041916","updateTime":"2022/05/06 15:57:32","stock":65,"label":"羅氏家用新冠病毒抗原自我檢測套組","address":"南投縣竹山鎮大明路４８２號","remark":"快篩實名制，每天16:00開始販售，售完為止。","phone":"(049)2652500"},"geometry":{"type":"Point","coordinates":[120.6798,23.759]}},{"type":"Feature","properties":{"name":"東京大藥局","id":"5939010399","updateTime":"2022/05/06 15:57:32","stock":60,"label":"羅氏家用新冠病毒抗原自我檢測套組","address":"雲林縣斗六市文化路７９號","remark":"快篩試劑每天下午4點販賣（售完為止）","phone":"(05)5348073"},"geometry":{"type":"Point","coordinates":[120.5486,23.71107]}},{"type":"Feature","properties":{"name":"明真西藥局","id":"5939011850","updateTime":"2022/05/06 15:57:32","stock":4,"label":"羅氏家用新冠病毒抗原自我檢測套組","address":"雲林縣斗六市自由路１號","remark":"口罩販售:早上0800-1200中午1200-1400休息下午1400到2100賣完為止","phone":"(05)5321605"},"geometry":{"type":"Point","coordinates":[120.5447,23.70513]}},{"type":"Feature","properties":{"name":"上海啄木鳥藥局","id":"5939012188","updateTime":"2022/05/06 15:57:32","stock":78,"label":"羅氏家用新冠病毒抗原自我檢測套組","address":"雲林縣斗六市上海路２３４號","remark":"5月4日實名制快篩等候郵務士送達才能開賣，販售時間暫時無法固定，請民眾勿等候","phone":"(05)5374296"},"geometry":{"type":"Point","coordinates":[120.5417,23.71444]}},{"type":"Feature","properties":{"name":"陽光藥局","id":"5939012400","updateTime":"2022/05/06 15:57:32","stock":3,"label":"羅氏家用新冠病毒抗原自我檢測套組","address":"雲林縣斗六市永安路６９號","remark":"快篩16:00開賣~現場排隊，請勿電話詢問","phone":"(05)5362097"},"geometry":{"type":"Point","coordinates":[120.548,23.70923]}},{"type":"Feature","properties":{"name":"世明中西藥局","id":"5939012526","updateTime":"2022/05/06 15:57:32","stock":1,"label":"羅氏家用新冠病毒抗原自我檢測套組","address":"雲林縣斗六市文化路３２４－１號","remark":"口罩販售:於周一到周日營業時間9:00~售完為止，快篩試劑販售:於周一到周六營業時間14:00開賣~售完為止","phone":"(05)5333109"},"geometry":{"type":"Point","coordinates":[120.5532,23.71162]}},{"type":"Feature","properties":{"name":"斗六藥局","id":"5939012599","updateTime":"2022/05/06 15:57:32","stock":78,"label":"羅氏家用新冠病毒抗原自我檢測套組","address":"雲林縣斗六市雲林路二段１１３號","remark":"快篩實名制，每天16:00開始販售，售完為止。","phone":"(05)5372300"},"geometry":{"type":"Point","coordinates":[120.534,23.70477]}},{"type":"Feature","properties":{"name":"斗南藥局","id":"5939021614","updateTime":"2022/05/06 15:57:32","stock":78,"label":"羅氏家用新冠病毒抗原自我檢測套組","address":"雲林縣斗南鎮南昌路１１２號","remark":"無","phone":"(05)5960102"},"geometry":{"type":"Point","coordinates":[120.4791,23.67321]}},{"type":"Feature","properties":{"name":"虎尾藥局","id":"5939032724","updateTime":"2022/05/06 15:57:32","stock":312,"label":"羅氏家用新冠病毒抗原自我檢測套組","address":"雲林縣虎尾鎮林森路二段１１７、１１９號","remark":"新開業， 5／4網路建置完成 每日下午16:00開始販售","phone":"(05)6336330"},"geometry":{"type":"Point","coordinates":[120.4298,23.70595]}},{"type":"Feature","properties":{"name":"西螺藥局","id":"5939041849","updateTime":"2022/05/06 15:57:32","stock":78,"label":"羅氏家用新冠病毒抗原自我檢測套組","address":"雲林縣西螺鎮光復西路１２３、１２５號","remark":"快篩實名制，每天16:00開始販售，售完為止。","phone":"(05)5872112"},"geometry":{"type":"Point","coordinates":[120.4612,23.79675]}},{"type":"Feature","properties":{"name":"大樹北港藥局","id":"5939061949","updateTime":"2022/05/06 15:57:32","stock":78,"label":"羅氏家用新冠病毒抗原自我檢測套組","address":"雲林縣北港鎮華勝路９９號","remark":"快篩實名制，每天16:00開始販售，售完為止。","phone":"(05)7830783"},"geometry":{"type":"Point","coordinates":[120.2986,23.57559]}},{"type":"Feature","properties":{"name":"元林中西藥局","id":"5939071294","updateTime":"2022/05/06 15:57:32","stock":7,"label":"羅氏家用新冠病毒抗原自我檢測套組","address":"雲林縣古坑鄉西平村西平路９－２號１樓","remark":"販賣口罩時間：08:00","phone":"(05)5828229"},"geometry":{"type":"Point","coordinates":[120.5606,23.64679]}},{"type":"Feature","properties":{"name":"麥津藥局","id":"5939131482","updateTime":"2022/05/06 15:57:32","stock":78,"label":"羅氏家用新冠病毒抗原自我檢測套組","address":"雲林縣麥寮鄉中山路３１３、３１５號","remark":"快篩實名制，每天16:00開始販售，售完為止。","phone":"(05)6932258"},"geometry":{"type":"Point","coordinates":[120.2527,23.74947]}},{"type":"Feature","properties":{"name":"和平藥局","id":"5939171093","updateTime":"2022/05/06 15:57:32","stock":11,"label":"羅氏家用新冠病毒抗原自我檢測套組","address":"雲林縣元長鄉下寮村東興路３３號","remark":"販賣口罩時間：0800開賣，賣完為止","phone":"(05)7862551"},"geometry":{"type":"Point","coordinates":[120.334,23.61849]}},{"type":"Feature","properties":{"name":"大樹大林藥局","id":"5940031386","updateTime":"2022/05/06 15:57:32","stock":78,"label":"羅氏家用新冠病毒抗原自我檢測套組","address":"嘉義縣大林鎮祥和路１９２號","remark":"快篩實名制，每天16:00開始販售，售完為止。","phone":"(05)2641800"},"geometry":{"type":"Point","coordinates":[120.4527,23.60447]}},{"type":"Feature","properties":{"name":"大祐藥局","id":"5940041748","updateTime":"2022/05/06 15:57:32","stock":7,"label":"羅氏家用新冠病毒抗原自我檢測套組","address":"嘉義縣民雄鄉西安村西安路２１－１號１樓","remark":"週日下午晚上休息","phone":"(05)2067077"},"geometry":{"type":"Point","coordinates":[120.4272,23.5564]}},{"type":"Feature","properties":{"name":"水上藥局","id":"5940121394","updateTime":"2022/05/06 15:57:32","stock":78,"label":"羅氏家用新冠病毒抗原自我檢測套組","address":"嘉義縣水上鄉水頭村中興路２６６號","remark":"快篩實名制，每天16:00開始販售，售完為止。","phone":"(05)2601121"},"geometry":{"type":"Point","coordinates":[120.4029,23.43014]}},{"type":"Feature","properties":{"name":"一心藥局","id":"5940131283","updateTime":"2022/05/06 15:57:32","stock":7,"label":"羅氏家用新冠病毒抗原自我檢測套組","address":"嘉義縣中埔鄉富收村頂中下街３１、３１－１號１樓","remark":"無","phone":"(05)2303553"},"geometry":{"type":"Point","coordinates":[120.4885,23.45077]}},{"type":"Feature","properties":{"name":"竹崎啄木鳥藥師藥局","id":"5940141314","updateTime":"2022/05/06 15:57:32","stock":3,"label":"羅氏家用新冠病毒抗原自我檢測套組","address":"嘉義縣竹崎鄉竹崎村中華路９２號","remark":"09:00~售罄","phone":"(05)2617786"},"geometry":{"type":"Point","coordinates":[120.5481,23.52055]}},{"type":"Feature","properties":{"name":"百興藥局","id":"5941050107","updateTime":"2022/05/06 15:57:32","stock":51,"label":"羅氏家用新冠病毒抗原自我檢測套組","address":"臺南市佳里區安西里文化路２５９號","remark":"禮拜一~六 08:00–21:00（快篩試劑每日販售時間:早上8:30分，星期日休息）       開始~售完","phone":"(06)7222735"},"geometry":{"type":"Point","coordinates":[120.1756,23.16302]}},{"type":"Feature","properties":{"name":"長英藥局","id":"5942010349","updateTime":"2022/05/06 15:57:32","stock":3,"label":"羅氏家用新冠病毒抗原自我檢測套組","address":"高雄市鳳山區八德路二段２６７號","remark":"4／29起-營業日15:00~17:00為快篩販賣時間，售完為止。","phone":"(07)7805002"},"geometry":{"type":"Point","coordinates":[120.3519,22.64479]}},{"type":"Feature","properties":{"name":"一仁藥局","id":"5942010812","updateTime":"2022/05/06 15:57:32","stock":1,"label":"羅氏家用新冠病毒抗原自我檢測套組","address":"高雄市鳳山區自由路２００號","remark":"實名快篩15:00 -20:00（售完為止）","phone":"(07)7425004"},"geometry":{"type":"Point","coordinates":[120.3495,22.62562]}},{"type":"Feature","properties":{"name":"建成藥局","id":"5942020130","updateTime":"2022/05/06 15:57:32","stock":3,"label":"羅氏家用新冠病毒抗原自我檢測套組","address":"高雄市岡山區台上里大仁路９７號","remark":"營業日.販賣快篩劑.時間15:00-18:00.或至售完為止","phone":"(07)6210458"},"geometry":{"type":"Point","coordinates":[120.3016,22.8053]}},{"type":"Feature","properties":{"name":"惠聖中西藥局","id":"5942140084","updateTime":"2022/05/06 15:57:32","stock":78,"label":"羅氏家用新冠病毒抗原自我檢測套組","address":"高雄市阿蓮區清蓮里中山路１４號","remark":"自4／28日起，實名制快篩週一~五下午5:00起，週六日上午8:00起銷售，售完為止","phone":"(07)6312582"},"geometry":{"type":"Point","coordinates":[120.3291,22.88057]}},{"type":"Feature","properties":{"name":"順成藥局","id":"5942200030","updateTime":"2022/05/06 15:57:32","stock":71,"label":"羅氏家用新冠病毒抗原自我檢測套組","address":"高雄市梓官區梓官路城隍巷３１號","remark":"週一至週五快篩銷售時間★下午4點，六、日★早上8點30","phone":"(07)6172407"},"geometry":{"type":"Point","coordinates":[120.2681,22.75929]}},{"type":"Feature","properties":{"name":"人和藥局","id":"5943013871","updateTime":"2022/05/06 15:57:32","stock":78,"label":"羅氏家用新冠病毒抗原自我檢測套組","address":"屏東縣屏東市林森路５４－１號","remark":"快篩試劑每日下午四點開始販售，售完為止","phone":"(08)7663883"},"geometry":{"type":"Point","coordinates":[120.4935,22.67267]}},{"type":"Feature","properties":{"name":"台大藥師藥局","id":"5943014029","updateTime":"2022/05/06 15:57:32","stock":11,"label":"羅氏家用新冠病毒抗原自我檢測套組","address":"屏東縣屏東市光復路１４０－３、１４２號","remark":"快篩試劑: 每日依郵局到貨時間機動調整， 隨到隨賣， 售完為止.","phone":"(08)7330587"},"geometry":{"type":"Point","coordinates":[120.4838,22.66998]}},{"type":"Feature","properties":{"name":"屏東藥局","id":"5943014092","updateTime":"2022/05/06 15:57:32","stock":78,"label":"羅氏家用新冠病毒抗原自我檢測套組","address":"屏東縣屏東市自由路６３１號","remark":"快篩實名制，每天16:00開始販售，售完為止。","phone":"(08)7323331"},"geometry":{"type":"Point","coordinates":[120.4824,22.683]}},{"type":"Feature","properties":{"name":"廣東藥局","id":"5943014145","updateTime":"2022/05/06 15:57:32","stock":78,"label":"羅氏家用新冠病毒抗原自我檢測套組","address":"屏東縣屏東市廣東路６８２－２．６８４號","remark":"快篩實名制，每天16:00開始販售，售完為止。","phone":"(08)7362210"},"geometry":{"type":"Point","coordinates":[120.4966,22.68527]}},{"type":"Feature","properties":{"name":"屏大藥局","id":"5943014234","updateTime":"2022/05/06 15:57:32","stock":55,"label":"羅氏家用新冠病毒抗原自我檢測套組","address":"屏東縣屏東市民生路５７－２１號","remark":"快篩實名制，每天16:00開始販售，售完為止。","phone":"(08)7220369"},"geometry":{"type":"Point","coordinates":[120.5038,22.66399]}},{"type":"Feature","properties":{"name":"千甲台安藥局","id":"5943014332","updateTime":"2022/05/06 15:57:32","stock":68,"label":"羅氏家用新冠病毒抗原自我檢測套組","address":"屏東縣屏東市武廟里逢甲路９２號","remark":"因政府物流不穩定 每日塊篩販售時間公告於LINE社群https:／／reurl.cc／M0b5VX","phone":"(08)7330663"},"geometry":{"type":"Point","coordinates":[120.4867,22.67045]}},{"type":"Feature","properties":{"name":"和平藥局","id":"5943014341","updateTime":"2022/05/06 15:57:32","stock":78,"label":"羅氏家用新冠病毒抗原自我檢測套組","address":"屏東縣屏東市和平路３５號","remark":"快篩實名制，每天16:00開始販售，售完為止。","phone":"(08)7556696"},"geometry":{"type":"Point","coordinates":[120.4785,22.66651]}},{"type":"Feature","properties":{"name":"立康藥局","id":"5943021695","updateTime":"2022/05/06 15:57:32","stock":6,"label":"羅氏家用新冠病毒抗原自我檢測套組","address":"屏東縣潮州鎮介壽路７７號１樓","remark":"快篩實名制下午3:30開始販售，售完為止","phone":"(08)7800995"},"geometry":{"type":"Point","coordinates":[120.5365,22.54417]}},{"type":"Feature","properties":{"name":"東港藥局","id":"5943031771","updateTime":"2022/05/06 15:57:32","stock":78,"label":"羅氏家用新冠病毒抗原自我檢測套組","address":"屏東縣東港鎮中正路２５７˙２５７－１號","remark":"快篩實名制，每天16:00開始販售，售完為止。","phone":"(08)8325133"},"geometry":{"type":"Point","coordinates":[120.4523,22.47022]}},{"type":"Feature","properties":{"name":"南門大藥局","id":"5943041320","updateTime":"2022/05/06 15:57:32","stock":78,"label":"羅氏家用新冠病毒抗原自我檢測套組","address":"屏東縣恆春鎮中正路８４號","remark":"營業日16:00-21:00 販賣實名制快篩（賣完為止），星期日不販售","phone":"(08)8894335"},"geometry":{"type":"Point","coordinates":[120.7446,22.00343]}},{"type":"Feature","properties":{"name":"西門藥局","id":"5943041357","updateTime":"2022/05/06 15:57:32","stock":78,"label":"羅氏家用新冠病毒抗原自我檢測套組","address":"屏東縣恆春鎮西門路１０８號","remark":"快篩實名制，每天16:00開始販售，販售完為止","phone":"(08)8896980"},"geometry":{"type":"Point","coordinates":[120.7437,22.00793]}},{"type":"Feature","properties":{"name":"新萬安藥局","id":"5943050169","updateTime":"2022/05/06 15:57:32","stock":8,"label":"羅氏家用新冠病毒抗原自我檢測套組","address":"屏東縣萬丹鄉萬安村萬丹路一段１１３號","remark":"實名制快篩販售時間中午 12:30  至售完","phone":"(08)7772035"},"geometry":{"type":"Point","coordinates":[120.4894,22.58628]}},{"type":"Feature","properties":{"name":"南寧藥局","id":"5943131561","updateTime":"2022/05/06 15:57:32","stock":78,"label":"羅氏家用新冠病毒抗原自我檢測套組","address":"屏東縣內埔鄉南寧路２３號","remark":"快篩實名制，每天16:00開始販售，售完為止。","phone":"(08)7690330"},"geometry":{"type":"Point","coordinates":[120.5655,22.61723]}},{"type":"Feature","properties":{"name":"長安中西藥局","id":"5943170095","updateTime":"2022/05/06 15:57:32","stock":1,"label":"羅氏家用新冠病毒抗原自我檢測套組","address":"屏東縣新園鄉中洲村南興路１９４號","remark":"自2／11~2／29日，販賣口罩時間9:00起，售完為止。","phone":"(08)8336986"},"geometry":{"type":"Point","coordinates":[120.4586,22.48776]}},{"type":"Feature","properties":{"name":"東文藥局","id":"5944011433","updateTime":"2022/05/06 15:57:32","stock":7,"label":"羅氏家用新冠病毒抗原自我檢測套組","address":"澎湖縣馬公市東文里文山路６６號","remark":"快篩販售:週一~週五下午3:30 週六休息","phone":"(06)9221433"},"geometry":{"type":"Point","coordinates":[119.5846,23.56228]}},{"type":"Feature","properties":{"name":"全民藥局","id":"5944020558","updateTime":"2022/05/06 15:57:32","stock":39,"label":"羅氏家用新冠病毒抗原自我檢測套組","address":"澎湖縣湖西鄉湖西村１５０－３號","remark":"中午12:00-13:30休息","phone":"(06)9920403"},"geometry":{"type":"Point","coordinates":[119.6603,23.5844]}},{"type":"Feature","properties":{"name":"富康大藥局","id":"5945012229","updateTime":"2022/05/06 15:57:32","stock":1,"label":"羅氏家用新冠病毒抗原自我檢測套組","address":"花蓮縣花蓮市中美路７３－２號一樓","remark":"快篩實名制販售時間下午3:00~4:00，下午2:45發號碼牌","phone":"(03)8227396"},"geometry":{"type":"Point","coordinates":[121.6234,23.98877]}},{"type":"Feature","properties":{"name":"安康鳳林藥局","id":"5945021086","updateTime":"2022/05/06 15:57:32","stock":10,"label":"羅氏家用新冠病毒抗原自我檢測套組","address":"花蓮縣鳳林鎮仁愛街１０號１樓","remark":"快篩發放時間，依現場公告為主，售完為止。","phone":"(03)8762227"},"geometry":{"type":"Point","coordinates":[121.4503,23.74937]}},{"type":"Feature","properties":{"name":"安欣藥局","id":"5945051584","updateTime":"2022/05/06 15:57:32","stock":14,"label":"羅氏家用新冠病毒抗原自我檢測套組","address":"花蓮縣吉安鄉建國路一段７９號","remark":"視收貨時間  今日下午3點40分販售","phone":"(03)8563186"},"geometry":{"type":"Point","coordinates":[121.5939,23.98513]}},{"type":"Feature","properties":{"name":"花蓮建國藥局","id":"5945051646","updateTime":"2022/05/06 15:57:32","stock":78,"label":"羅氏家用新冠病毒抗原自我檢測套組","address":"花蓮縣吉安鄉建國路１段１３７－１號","remark":"快篩實名制，每天16:00開始販售，售完為止。","phone":"(03)8461699"},"geometry":{"type":"Point","coordinates":[121.5915,23.98574]}},{"type":"Feature","properties":{"name":"晃成藥局","id":"5946010229","updateTime":"2022/05/06 15:57:32","stock":2,"label":"羅氏家用新冠病毒抗原自我檢測套組","address":"臺東縣臺東市更生路４９４號","remark":"快篩3:00發號碼牌3:15開始","phone":"(089)336981"},"geometry":{"type":"Point","coordinates":[121.1411,22.76355]}},{"type":"Feature","properties":{"name":"伯安健康藥局","id":"5946080552","updateTime":"2022/05/06 15:57:32","stock":106,"label":"羅氏家用新冠病毒抗原自我檢測套組","address":"臺東縣長濱鄉長濱村１０鄰長濱路１０５號","remark":"無","phone":"(089)832519"},"geometry":{"type":"Point","coordinates":[121.4515,23.31496]}},{"type":"Feature","properties":{"name":"伯安藥局","id":"5946101118","updateTime":"2022/05/06 15:57:32","stock":185,"label":"羅氏家用新冠病毒抗原自我檢測套組","address":"臺東縣池上鄉新生路１１６號","remark":"早0800-1200，午1400-1800，晚1800-2000","phone":"(089)863585"},"geometry":{"type":"Point","coordinates":[121.2187,23.12315]}},{"type":"Feature","properties":{"name":"百泰藥局","id":"5990010695","updateTime":"2022/05/06 15:57:32","stock":156,"label":"羅氏家用新冠病毒抗原自我檢測套組","address":"金門縣金城鎮西海路１段１號","remark":"快篩實名制，每天16:00開始販售，售完為止。","phone":"(082)312832"},"geometry":{"type":"Point","coordinates":[118.2864,24.41566]}}]}